State,County,FIPS,Lat,Long
Alabama,Autauga,1001,32.53952745,-86.64408227
Alabama,Baldwin,1003,30.72774991,-87.72207058
Alabama,Barbour,1005,31.868263,-85.3871286
Alabama,Bibb,1007,32.99642064,-87.1251146
Alabama,Blount,1009,33.98210918,-86.56790593
Alabama,Bullock,1011,32.10030533,-85.71265535
Alabama,Butler,1013,31.75300095,-86.68057478
Alabama,Calhoun,1015,33.77483727,-85.82630386
Alabama,Chambers,1017,32.91360079,-85.39072749
Alabama,Cherokee,1019,34.17805983,-85.60638968
Alabama,Chilton,1021,32.85044126,-86.7173256
Alabama,Choctaw,1023,32.02227341,-88.2656443
Alabama,Clarke,1025,31.68099859,-87.83548597
Alabama,Clay,1027,33.26984193,-85.85836077
Alabama,Cleburne,1029,33.67679204,-85.52005899
Alabama,Coffee,1031,31.39932826,-85.98901039
Alabama,Colbert,1033,34.69847452,-87.80168544
Alabama,Conecuh,1035,31.43401703,-86.99320044
Alabama,Coosa,1037,32.93690146,-86.24847739
Alabama,Covington,1039,31.2477854,-86.45050893
Alabama,Crenshaw,1041,31.72941803,-86.31593104
Alabama,Cullman,1043,34.13020303,-86.86888037
Alabama,Dale,1045,31.43037123,-85.61095742
Alabama,Dallas,1047,32.32688101,-87.1086671
Alabama,DeKalb,1049,34.45946862,-85.80782906
Alabama,Elmore,1051,32.59785413,-86.14415284
Alabama,Escambia,1053,31.1256789,-87.15918694
Alabama,Etowah,1055,34.04567266,-86.04051873
Alabama,Fayette,1057,33.72076938,-87.73886638
Alabama,Franklin,1059,34.44235334,-87.84289505
Alabama,Geneva,1061,31.09389027,-85.83572839
Alabama,Greene,1063,32.85504247,-87.95684022
Alabama,Hale,1065,32.76039258,-87.63284988
Alabama,Henry,1067,31.51148016,-85.24267944
Alabama,Houston,1069,31.15197924,-85.29939599
Alabama,Jackson,1071,34.78144169,-85.99750489
Alabama,Jefferson,1073,33.55554728,-86.895063
Alabama,Lamar,1075,33.77995024,-88.09668032
Alabama,Lauderdale,1077,34.90171875,-87.65624729
Alabama,Lawrence,1079,34.52041498,-87.31069453
Alabama,Lee,1081,32.60154883,-85.35132246
Alabama,Limestone,1083,34.81185586,-86.98310072
Alabama,Lowndes,1085,32.1597283,-86.65158371
Alabama,Macon,1087,32.38759944,-85.69267724
Alabama,Madison,1089,34.76327133,-86.55069633
Alabama,Marengo,1091,32.24767634,-87.78796182
Alabama,Marion,1093,34.13697363,-87.88704173
Alabama,Marshall,1095,34.36975964,-86.30486727
Alabama,Mobile,1097,30.78472347,-88.20842409
Alabama,Monroe,1099,31.56729412,-87.36995001
Alabama,Montgomery,1101,32.2206831,-86.20969272
Alabama,Morgan,1103,34.45500589,-86.85475946
Alabama,Perry,1105,32.64048341,-87.29770589
Alabama,Pickens,1107,33.28094866,-88.08818103
Alabama,Pike,1109,31.80396383,-85.9408295
Alabama,Randolph,1111,33.29526734,-85.45708831
Alabama,Russell,1113,32.28725256,-85.18415324
Alabama,Shelby,1117,33.26879845,-86.66232561
Alabama,St. Clair,1115,33.71902176,-86.31029372
Alabama,Sumter,1119,32.59117397,-88.19916205
Alabama,Talladega,1121,33.37823223,-86.16886178
Alabama,Tallapoosa,1123,32.86698258,-85.79833053
Alabama,Tuscaloosa,1125,33.28726072,-87.52556818
Alabama,Walker,1127,33.80270512,-87.30027177
Alabama,Washington,1129,31.4092794,-88.20689944
Alabama,Wilcox,1131,31.98773215,-87.30891118
Alabama,Winston,1133,34.15030532,-87.37325922
Alaska,Aleutians East,2013,55.32222414,-161.9722021
Alaska,Aleutians West,2016,52.72541116,-110.4086433
Alaska,Anchorage,2020,61.14998174,-149.1426986
Alaska,Bethel,2050,60.90980451,-159.8561831
Alaska,Bristol Bay,2060,58.74513976,-156.701064
Alaska,Denali,2068,63.67264044,-150.0076108
Alaska,Dillingham,2070,59.79603738,-158.2381942
Alaska,Fairbanks North Star,2090,64.80726247,-146.5692662
Alaska,Haines,2100,59.09893571,-135.4679843
Alaska,Hoonah-Angoon,2105,58.29307365,-135.6424424
Alaska,Juneau,2110,58.45031811,-134.200436
Alaska,Kenai Peninsula,2122,60.24429722,-151.5388884
Alaska,Ketchikan Gateway,2130,55.57445008,-130.975561
Alaska,Kodiak Island,2150,57.65529415,-153.7493579
Alaska,Kusilvak,2158,62.1542916,-163.3967883
Alaska,Lake and Peninsula,2164,58.62403337,-156.2140589
Alaska,Matanuska-Susitna,2170,62.31305045,-149.5741743
Alaska,Nome,2180,64.90320724,-164.0353804
Alaska,North Slope,2185,69.31479216,-153.4836093
Alaska,Northwest Arctic,2188,67.04919196,-159.7503946
Alaska,Petersburg,2195,57.13978948,-132.9540995
Alaska,Prince of Wales-Hyder,2198,55.76261984,-133.0511621
Alaska,Sitka,2220,57.24124555,-135.3206587
Alaska,Skagway,2230,59.56149996,-135.3337748
Alaska,Southeast Fairbanks,2240,63.87692095,-143.2127643
Alaska,Valdez-Cordova,2261,61.47502768,-144.7126799
Alaska,Wrangell,2275,56.3202004,-132.0583731
Alaska,Yakutat,2282,59.8909808,-140.3601451
Alaska,Yukon-Koyukuk,2290,65.50815459,-151.3907387
Arizona,Apache,4001,35.39465006,-109.4892383
Arizona,Cochise,4003,31.87934684,-109.7516088
Arizona,Coconino,4005,35.83883429,-111.7707178
Arizona,Gila,4007,33.80190085,-110.8132779
Arizona,Graham,4009,32.93166885,-109.8882178
Arizona,Greenlee,4011,33.21498827,-109.2405279
Arizona,La Paz,4012,33.72854224,-113.9810029
Arizona,Maricopa,4013,33.34835867,-112.4918154
Arizona,Mohave,4015,35.70471703,-113.7577902
Arizona,Navajo,4017,35.3997715,-110.3218983
Arizona,Pima,4019,32.0971334,-111.7890033
Arizona,Pinal,4021,32.90525627,-111.3449483
Arizona,Santa Cruz,4023,31.52508998,-110.8479088
Arizona,Yavapai,4025,34.59933926,-112.5538588
Arizona,Yuma,4027,32.76895712,-113.9066674
Arkansas,Arkansas,5001,34.29145151,-91.37277296
Arkansas,Ashley,5003,33.19153461,-91.7698471
Arkansas,Baxter,5005,36.28784385,-92.33782872
Arkansas,Benton,5007,36.33644656,-94.25680817
Arkansas,Boone,5009,36.3084504,-93.09374925
Arkansas,Bradley,5011,33.46755808,-92.15980837
Arkansas,Calhoun,5013,33.55598792,-92.49974403
Arkansas,Carroll,5015,36.3403856,-93.54270261
Arkansas,Chicot,5017,33.26458973,-91.29539209
Arkansas,Clark,5019,34.04613432,-93.17484713
Arkansas,Clay,5021,36.36826212,-90.4148172
Arkansas,Cleburne,5023,35.53864922,-92.02640019
Arkansas,Cleveland,5025,33.89723187,-92.18537045
Arkansas,Columbia,5027,33.21230701,-93.22642793
Arkansas,Conway,5029,35.26205537,-92.70506566
Arkansas,Craighead,5031,35.83018283,-90.63235729
Arkansas,Crawford,5033,35.58928601,-94.2446814
Arkansas,Crittenden,5035,35.21247318,-90.30839406
Arkansas,Cross,5037,35.29631396,-90.77185818
Arkansas,Dallas,5039,33.97042763,-92.65167437
Arkansas,Desha,5041,33.83011025,-91.25500948
Arkansas,Drew,5043,33.59035001,-91.71777921
Arkansas,Faulkner,5045,35.14719007,-92.33717519
Arkansas,Franklin,5047,35.51202821,-93.89299569
Arkansas,Fulton,5049,36.38177105,-91.81729127
Arkansas,Garland,5051,34.57692074,-93.14921604
Arkansas,Grant,5053,34.29017991,-92.42320562
Arkansas,Greene,5055,36.1173546,-90.55832668
Arkansas,Hempstead,5057,33.73325583,-93.66935133
Arkansas,Hot Spring,5059,34.31709259,-92.95396325
Arkansas,Howard,5061,34.09007427,-93.9934871
Arkansas,Independence,5063,35.74242707,-91.57001641
Arkansas,Izard,5065,36.09604046,-91.90847954
Arkansas,Jackson,5067,35.59802983,-91.21494602
Arkansas,Jefferson,5069,34.26767081,-91.92619839
Arkansas,Johnson,5071,35.56759135,-93.46036368
Arkansas,Lafayette,5073,33.24116713,-93.60677071
Arkansas,Lawrence,5075,36.04188196,-91.10867198
Arkansas,Lee,5077,34.78498904,-90.78383866
Arkansas,Lincoln,5079,33.95317155,-91.74002806
Arkansas,Little River,5081,33.70375665,-94.23468591
Arkansas,Logan,5083,35.21413234,-93.71951016
Arkansas,Lonoke,5085,34.75392199,-91.88742357
Arkansas,Madison,5087,36.01038185,-93.72524943
Arkansas,Marion,5089,36.26844485,-92.68451899
Arkansas,Miller,5091,33.31403423,-93.89285258
Arkansas,Mississippi,5093,35.76271485,-90.0519437
Arkansas,Monroe,5095,34.6815935,-91.20540287
Arkansas,Montgomery,5097,34.53704874,-93.65824478
Arkansas,Nevada,5099,33.66340119,-93.30632432
Arkansas,Newton,5101,35.91947491,-93.21612969
Arkansas,Ouachita,5103,33.58839816,-92.87795984
Arkansas,Perry,5105,34.9459153,-92.94372564
Arkansas,Phillips,5107,34.43268455,-90.84800154
Arkansas,Pike,5109,34.16250414,-93.65789349
Arkansas,Poinsett,5111,35.57433534,-90.66268713
Arkansas,Polk,5113,34.48254879,-94.22728802
Arkansas,Pope,5115,35.44871474,-93.03212219
Arkansas,Prairie,5117,34.83624419,-91.55162157
Arkansas,Pulaski,5119,34.77054088,-92.31355101
Arkansas,Randolph,5121,36.3415714,-91.02455531
Arkansas,Saline,5125,34.64916145,-92.67583224
Arkansas,Scott,5127,34.85588887,-94.0632176
Arkansas,Searcy,5129,35.9109364,-92.69936482
Arkansas,Sebastian,5131,35.19605503,-94.27162713
Arkansas,Sevier,5133,33.99780401,-94.2424869
Arkansas,Sharp,5135,36.16258158,-91.47819342
Arkansas,St. Francis,5123,35.02201976,-90.74828138
Arkansas,Stone,5137,35.86251946,-92.15684085
Arkansas,Union,5139,33.16887091,-92.59746952
Arkansas,Van Buren,5141,35.58095779,-92.51295036
Arkansas,Washington,5143,35.976844,-94.21800746
Arkansas,White,5145,35.25688493,-91.74908296
Arkansas,Woodruff,5147,35.18902527,-91.2439489
Arkansas,Yell,5149,35.00292371,-93.41171338
California,Alameda,6001,37.64629437,-121.8929271
California,Alpine,6003,38.59678594,-119.8223594
California,Amador,6005,38.44583082,-120.65696
California,Butte,6007,39.66727762,-121.6005252
California,Calaveras,6009,38.20537103,-120.552913
California,Colusa,6011,39.17881957,-122.2331726
California,Contra Costa,6013,37.91923498,-121.9289527
California,Del Norte,6015,41.74228275,-123.8974063
California,El Dorado,6017,38.77965956,-120.5233166
California,Fresno,6019,36.75733899,-119.6466953
California,Glenn,6021,39.59875897,-122.3938452
California,Humboldt,6023,40.69923009,-123.876044
California,Imperial,6025,33.0393082,-115.3669042
California,Inyo,6027,36.51112084,-117.4111978
California,Kern,6029,35.34329425,-118.7277796
California,Kings,6031,36.07409056,-119.8159973
California,Lake,6033,39.10124298,-122.7536244
California,Lassen,6035,40.67311306,-120.5935099
California,Los Angeles,6037,34.30828379,-118.2282411
California,Madera,6039,37.21513971,-119.7665589
California,Marin,6041,38.07122463,-122.7210631
California,Mariposa,6043,37.57978556,-119.9073334
California,Mendocino,6045,39.4381191,-123.3911313
California,Merced,6047,37.18922369,-120.7209035
California,Modoc,6049,41.58965602,-120.7244817
California,Mono,6051,37.93899289,-118.8872409
California,Monterey,6053,36.21862405,-121.2413397
California,Napa,6055,38.50735751,-122.332839
California,Nevada,6057,39.30394768,-120.7627281
California,Orange,6059,33.70147516,-117.7645998
California,Placer,6061,39.06167234,-120.7240569
California,Plumas,6063,40.00355989,-120.8395236
California,Riverside,6065,33.74314981,-115.9933578
California,Sacramento,6067,38.45106826,-121.3425374
California,San Benito,6069,36.60308176,-121.069975
California,San Bernardino,6071,34.84060306,-116.1774685
California,San Diego,6073,33.03484597,-116.7365326
California,San Francisco,6075,37.75215114,-122.4385672
California,San Joaquin,6077,37.93433732,-121.2730061
California,San Luis Obispo,6079,35.38822029,-120.4039028
California,San Mateo,6081,37.4228808,-122.3275546
California,Santa Barbara,6083,34.65329488,-120.0188492
California,Santa Clara,6085,37.23104908,-121.6970462
California,Santa Cruz,6087,37.05580291,-122.0066524
California,Shasta,6089,40.76391419,-122.0396884
California,Sierra,6091,39.57713498,-120.5200701
California,Siskiyou,6093,41.59198861,-122.5407434
California,Solano,6095,38.26827353,-121.9357113
California,Sonoma,6097,38.52746429,-122.8862506
California,Stanislaus,6099,37.55862499,-120.9970722
California,Sutter,6101,39.03417539,-121.6945899
California,Tehama,6103,40.12570935,-122.2370171
California,Trinity,6105,40.6491767,-123.114713
California,Tulare,6107,36.22026558,-118.8020203
California,Tuolumne,6109,38.02644018,-119.9525093
California,Ventura,6111,34.44465746,-119.0910613
California,Yolo,6113,38.68278902,-121.9018288
California,Yuba,6115,39.26255932,-121.3535644
Colorado,Adams,8001,39.87432092,-104.3362578
Colorado,Alamosa,8003,37.57250606,-105.7885451
Colorado,Arapahoe,8005,39.64977461,-104.3353617
Colorado,Archuleta,8007,37.19474156,-107.0476867
Colorado,Baca,8009,37.31940883,-102.5603223
Colorado,Bent,8011,37.95474293,-103.0720195
Colorado,Boulder,8013,40.09313619,-105.3546767
Colorado,Broomfield,8014,39.95998787,-105.0566324
Colorado,Chaffee,8015,38.74745778,-106.1926573
Colorado,Cheyenne,8017,38.82777431,-102.6032558
Colorado,Clear Creek,8019,39.68864463,-105.6463118
Colorado,Conejos,8021,37.201606,-106.1917488
Colorado,Costilla,8023,37.27732493,-105.4276548
Colorado,Crowley,8025,38.32608609,-103.7844965
Colorado,Custer,8027,38.10883162,-105.3683478
Colorado,Delta,8029,38.86246243,-107.8631342
Colorado,Denver,8031,39.76018276,-104.8725695
Colorado,Dolores,8033,37.75208676,-108.5211585
Colorado,Douglas,8035,39.33133796,-104.930001
Colorado,Eagle,8037,39.62754308,-106.6933637
Colorado,El Paso,8041,38.83240149,-104.5251411
Colorado,Elbert,8039,39.28656773,-104.1358721
Colorado,Fremont,8043,38.47362326,-105.4399667
Colorado,Garfield,8045,39.59921777,-107.902708
Colorado,Gilpin,8047,39.85646523,-105.5252597
Colorado,Grand,8049,40.10603347,-106.1178042
Colorado,Gunnison,8051,38.66611652,-107.0320729
Colorado,Hinsdale,8053,37.82247444,-107.3004345
Colorado,Huerfano,8055,37.68473101,-104.9612585
Colorado,Jackson,8057,40.6659387,-106.3408905
Colorado,Jefferson,8059,39.58635604,-105.2517692
Colorado,Kiowa,8061,38.43260896,-102.7392145
Colorado,Kit Carson,8063,39.30497777,-102.6022199
Colorado,La Plata,8067,37.28632032,-107.8429014
Colorado,Lake,8065,39.20278823,-106.3555697
Colorado,Larimer,8069,40.66671597,-105.4625784
Colorado,Las Animas,8071,37.3153406,-104.0376458
Colorado,Lincoln,8073,38.98749519,-103.5136649
Colorado,Logan,8075,40.7249637,-103.110817
Colorado,Mesa,8077,39.01787888,-108.469799
Colorado,Mineral,8079,37.66954283,-106.9281698
Colorado,Moffat,8081,40.61810999,-108.2070876
Colorado,Montezuma,8083,37.33859579,-108.5958857
Colorado,Montrose,8085,38.40214114,-108.2639022
Colorado,Morgan,8087,40.2627981,-103.8093302
Colorado,Otero,8089,37.9014485,-103.7173385
Colorado,Ouray,8091,38.14717457,-107.7675136
Colorado,Park,8093,39.120926,-105.7182065
Colorado,Phillips,8095,40.59414277,-102.3577703
Colorado,Pitkin,8097,39.21720112,-106.9310027
Colorado,Prowers,8099,37.95544985,-102.3926052
Colorado,Pueblo,8101,38.17359144,-104.5127437
Colorado,Rio Blanco,8103,39.97913541,-108.2179009
Colorado,Rio Grande,8105,37.5836865,-106.3847838
Colorado,Routt,8107,40.48596505,-106.9905548
Colorado,Saguache,8109,38.08054629,-106.282466
Colorado,San Juan,8111,37.76248981,-107.6763289
Colorado,San Miguel,8113,38.00450883,-108.4020725
Colorado,Sedgwick,8115,40.87595412,-102.3519227
Colorado,Summit,8117,39.63803232,-106.1150762
Colorado,Teller,8119,38.88133511,-105.1614893
Colorado,Washington,8121,39.97015535,-103.202587
Colorado,Weld,8123,40.55499405,-104.3929621
Colorado,Yuma,8125,40.00346839,-102.4258673
Connecticut,Fairfield,9001,41.26809896,-73.3881171
Connecticut,Hartford,9003,41.80283011,-72.73103891
Connecticut,Litchfield,9005,41.7937534,-73.2451475
Connecticut,Middlesex,9007,41.45949668,-72.53714864
Connecticut,New Haven,9009,41.4080325,-72.93620426
Connecticut,New London,9011,41.48896435,-72.10430976
Connecticut,Tolland,9013,41.85853803,-72.3308481
Connecticut,Windham,9015,41.82972709,-71.98182316
Delaware,Kent,10001,39.08646628,-75.56884914
Delaware,New Castle,10003,39.57992638,-75.64054974
Delaware,Sussex,10005,38.66143781,-75.39031349
District of Columbia,District of Columbia,11001,38.90417773,-77.01655992
Florida,Alachua,12001,29.67866525,-82.35928158
Florida,Baker,12003,30.33060121,-82.28467476
Florida,Bay,12005,30.26548745,-85.62122584
Florida,Bradford,12007,29.95079741,-82.16611613
Florida,Brevard,12009,28.29409504,-80.73091022
Florida,Broward,12011,26.15184651,-80.48725556
Florida,Calhoun,12013,30.40666734,-85.19394153
Florida,Charlotte,12015,26.90131002,-81.92949121
Florida,Citrus,12017,28.84804315,-82.47614748
Florida,Clay,12019,29.98319144,-81.85609986
Florida,Collier,12021,26.11091986,-81.34687065
Florida,Columbia,12023,30.22509788,-82.62160164
Florida,DeSoto,12027,27.18677893,-81.80941373
Florida,Dixie,12029,29.60631086,-83.15724673
Florida,Duval,12031,30.33225875,-81.66976468
Florida,Escambia,12033,30.67652764,-87.37284571
Florida,Flagler,12035,29.45933576,-81.31508595
Florida,Franklin,12037,29.83791238,-84.82731662
Florida,Gadsden,12039,30.57796289,-84.61915825
Florida,Gilchrist,12041,29.72856978,-82.79880657
Florida,Glades,12043,26.95635849,-81.18996211
Florida,Gulf,12045,29.93543004,-85.2427099
Florida,Hamilton,12047,30.49673973,-82.94998918
Florida,Hardee,12049,27.49293939,-81.80956574
Florida,Hendry,12051,26.55386945,-81.16469006
Florida,Hernando,12053,28.55364461,-82.42700204
Florida,Highlands,12055,27.34254618,-81.34071957
Florida,Hillsborough,12057,27.9276559,-82.32013172
Florida,Holmes,12059,30.86747479,-85.81319222
Florida,Indian River,12061,27.69308961,-80.60556721
Florida,Jackson,12063,30.7954597,-85.21500423
Florida,Jefferson,12065,30.43669112,-83.89442308
Florida,Lafayette,12067,29.98484137,-83.18166636
Florida,Lake,12069,28.76202069,-81.7125123
Florida,Lee,12071,26.58410348,-81.88399313
Florida,Leon,12073,30.45955727,-84.27491114
Florida,Levy,12075,29.31829741,-82.74007147
Florida,Liberty,12077,30.23766008,-84.8829258
Florida,Madison,12079,30.44396917,-83.47398594
Florida,Manatee,12081,27.47196942,-82.31831044
Florida,Marion,12083,29.21227113,-82.05803627
Florida,Martin,12085,27.0772071,-80.43109784
Florida,Miami-Dade,12086,25.6112362,-80.55170587
Florida,Monroe,12087,25.20904673,-81.07812416
Florida,Nassau,12089,30.61037141,-81.80297522
Florida,Okaloosa,12091,30.69143028,-86.59267105
Florida,Okeechobee,12093,27.3863362,-80.88944347
Florida,Orange,12095,28.51367621,-81.31799498
Florida,Osceola,12097,28.06312234,-81.14882926
Florida,Palm Beach,12099,26.64676272,-80.46536002
Florida,Pasco,12101,28.30810945,-82.40227529
Florida,Pinellas,12103,27.93130349,-82.72239666
Florida,Polk,12105,27.95027105,-81.69732947
Florida,Putnam,12107,29.60779729,-81.74230285
Florida,Santa Rosa,12113,30.6934145,-87.02458128
Florida,Sarasota,12115,27.18546175,-82.33174248
Florida,Seminole,12117,28.7158582,-81.24060348
Florida,St. Johns,12109,29.90096506,-81.43589967
Florida,St. Lucie,12111,27.37763908,-80.47106649
Florida,Sumter,12119,28.70181754,-82.0794267
Florida,Suwannee,12121,30.19746066,-82.9909967
Florida,Taylor,12123,30.04848048,-83.60445406
Florida,Union,12125,30.04412971,-82.37497443
Florida,Volusia,12127,29.05858895,-81.18263252
Florida,Wakulla,12129,30.16548905,-84.39895211
Florida,Walton,12131,30.64204028,-86.16935664
Florida,Washington,12133,30.61359259,-85.66002461
Georgia,Appling,13001,31.74847232,-82.28909114
Georgia,Atkinson,13003,31.29633502,-82.87545866
Georgia,Bacon,13005,31.55456473,-82.45936528
Georgia,Baker,13007,31.32669878,-84.44218806
Georgia,Baldwin,13009,33.06882326,-83.24701748
Georgia,Banks,13011,34.35607081,-83.49644388
Georgia,Barrow,13013,33.99148694,-83.71436292
Georgia,Bartow,13015,34.23732119,-84.83887523
Georgia,Ben Hill,13017,31.76095874,-83.22145359
Georgia,Berrien,13019,31.27590016,-83.2252992
Georgia,Bibb,13021,32.80904227,-83.70489165
Georgia,Bleckley,13023,32.43829035,-83.33035166
Georgia,Brantley,13025,31.19576557,-81.97743999
Georgia,Brooks,13027,30.83922642,-83.58303423
Georgia,Bryan,13029,32.00979311,-81.44002948
Georgia,Bulloch,13031,32.39577406,-81.74811421
Georgia,Burke,13033,33.05917989,-81.99928721
Georgia,Butts,13035,33.2830945,-83.9543504
Georgia,Calhoun,13037,31.53169785,-84.62725131
Georgia,Camden,13039,30.92951916,-81.66601818
Georgia,Candler,13043,32.40209349,-82.07702563
Georgia,Carroll,13045,33.58138199,-85.07976677
Georgia,Catoosa,13047,34.89872298,-85.13757014
Georgia,Charlton,13049,30.78371028,-82.13951596
Georgia,Chatham,13051,32.00043026,-81.12489526
Georgia,Chattahoochee,13053,32.34341231,-84.78809239
Georgia,Chattooga,13055,34.47197698,-85.34535662
Georgia,Cherokee,13057,34.24393976,-84.47431861
Georgia,Clarke,13059,33.95436462,-83.37124007
Georgia,Clay,13061,31.62221166,-84.97713865
Georgia,Clayton,13063,33.54187245,-84.35594188
Georgia,Clinch,13065,30.91395822,-82.70432472
Georgia,Cobb,13067,33.94243204,-84.5761255
Georgia,Coffee,13069,31.54892966,-82.8549206
Georgia,Colquitt,13071,31.18810588,-83.7677946
Georgia,Columbia,13073,33.54534185,-82.263524
Georgia,Cook,13075,31.16068491,-83.42947229
Georgia,Coweta,13077,33.35334302,-84.76129976
Georgia,Crawford,13079,32.71391813,-83.98061238
Georgia,Crisp,13081,31.92289565,-83.76811843
Georgia,Dade,13083,34.8549167,-85.50490424
Georgia,Dawson,13085,34.44244079,-84.16964071
Georgia,Decatur,13087,30.87967778,-84.57619536
Georgia,DeKalb,13089,33.76944049,-84.22396017
Georgia,Dodge,13091,32.17265114,-83.16948926
Georgia,Dooly,13093,32.15630737,-83.79746561
Georgia,Dougherty,13095,31.53328528,-84.21722377
Georgia,Douglas,13097,33.70291126,-84.77026156
Georgia,Early,13099,31.32155345,-84.90255207
Georgia,Echols,13101,30.71101099,-82.89687287
Georgia,Effingham,13103,32.36616021,-81.34280942
Georgia,Elbert,13105,34.11302332,-82.83936148
Georgia,Emanuel,13107,32.59221302,-82.30239915
Georgia,Evans,13109,32.15328841,-81.8870105
Georgia,Fannin,13111,34.86430205,-84.316964
Georgia,Fayette,13113,33.41357794,-84.49089434
Georgia,Floyd,13115,34.26268279,-85.21577392
Georgia,Forsyth,13117,34.22604035,-84.1231513
Georgia,Franklin,13119,34.37525597,-83.23159927
Georgia,Fulton,13121,33.79216944,-84.46319413
Georgia,Gilmer,13123,34.69316688,-84.45802506
Georgia,Glascock,13125,33.22879932,-82.61297636
Georgia,Glynn,13127,31.23279254,-81.53811412
Georgia,Gordon,13129,34.50487351,-84.87296253
Georgia,Grady,13131,30.87454847,-84.23418364
Georgia,Greene,13133,33.5769205,-83.17139104
Georgia,Gwinnett,13135,33.96044201,-84.02137802
Georgia,Habersham,13137,34.63331566,-83.53094677
Georgia,Hall,13139,34.32207823,-83.81896936
Georgia,Hancock,13141,33.2721566,-82.99766919
Georgia,Haralson,13143,33.79602175,-85.21005667
Georgia,Harris,13145,32.73709786,-84.90538572
Georgia,Hart,13147,34.34626973,-82.96567682
Georgia,Heard,13149,33.29686567,-85.12886832
Georgia,Henry,13151,33.4533428,-84.1481466
Georgia,Houston,13153,32.45802497,-83.66879087
Georgia,Irwin,13155,31.60213036,-83.27501387
Georgia,Jackson,13157,34.13794553,-83.56814788
Georgia,Jasper,13159,33.31535543,-83.68844964
Georgia,Jeff Davis,13161,31.80405727,-82.6372487
Georgia,Jefferson,13163,33.05867328,-82.41609057
Georgia,Jenkins,13165,32.79248718,-81.96040187
Georgia,Johnson,13167,32.70211082,-82.66166794
Georgia,Jones,13169,33.02512137,-83.56019163
Georgia,Lamar,13171,33.07841647,-84.14263877
Georgia,Lanier,13173,31.0382857,-83.06472457
Georgia,Laurens,13175,32.46325233,-82.92221316
Georgia,Lee,13177,31.7793306,-84.14324253
Georgia,Liberty,13179,31.82588896,-81.49251135
Georgia,Lincoln,13181,33.79201475,-82.45024131
Georgia,Long,13183,31.75218791,-81.74952375
Georgia,Lowndes,13185,30.83568832,-83.27056716
Georgia,Lumpkin,13187,34.57286511,-84.00425681
Georgia,Macon,13193,32.35207048,-84.04234127
Georgia,Madison,13195,34.12920917,-83.21218732
Georgia,Marion,13197,32.3483402,-84.52733571
Georgia,McDuffie,13189,33.47851918,-82.48252774
Georgia,McIntosh,13191,31.49683595,-81.40163426
Georgia,Meriwether,13199,33.04163534,-84.68859732
Georgia,Miller,13201,31.16568912,-84.73151117
Georgia,Mitchell,13205,31.22483255,-84.19381821
Georgia,Monroe,13207,33.014289,-83.92097166
Georgia,Montgomery,13209,32.17201038,-82.53527476
Georgia,Morgan,13211,33.59232073,-83.49129491
Georgia,Murray,13213,34.78897608,-84.74993177
Georgia,Muscogee,13215,32.50931999,-84.87142262
Georgia,Newton,13217,33.55514538,-83.8454714
Georgia,Oconee,13219,33.83749973,-83.43679568
Georgia,Oglethorpe,13221,33.8786296,-83.08278123
Georgia,Paulding,13223,33.91969522,-84.86848792
Georgia,Peach,13225,32.56934316,-83.82937
Georgia,Pickens,13227,34.46589159,-84.46406611
Georgia,Pierce,13229,31.35928155,-82.21598442
Georgia,Pike,13231,33.09310242,-84.38790389
Georgia,Polk,13233,34.00267074,-85.18677781
Georgia,Pulaski,13235,32.23334561,-83.4754996
Georgia,Putnam,13237,33.32056115,-83.37552891
Georgia,Quitman,13239,31.86728114,-85.01773177
Georgia,Rabun,13241,34.88389445,-83.40304637
Georgia,Randolph,13243,31.76622818,-84.75732369
Georgia,Richmond,13245,33.35777107,-82.07026432
Georgia,Rockdale,13247,33.65145002,-84.02202167
Georgia,Schley,13249,32.2654021,-84.31258912
Georgia,Screven,13251,32.74976524,-81.60779441
Georgia,Seminole,13253,30.93464824,-84.86823924
Georgia,Spalding,13255,33.26310031,-84.28013991
Georgia,Stephens,13257,34.55151201,-83.29405315
Georgia,Stewart,13259,32.07996777,-84.83208037
Georgia,Sumter,13261,32.03650571,-84.19821492
Georgia,Talbot,13263,32.69642758,-84.53351366
Georgia,Taliaferro,13265,33.56543317,-82.88136816
Georgia,Tattnall,13267,32.04785085,-82.05539188
Georgia,Taylor,13269,32.55792548,-84.25077141
Georgia,Telfair,13271,31.92829517,-82.93491155
Georgia,Terrell,13273,31.77527543,-84.44069698
Georgia,Thomas,13275,30.86392347,-83.91847289
Georgia,Tift,13277,31.45743864,-83.5236119
Georgia,Toombs,13279,32.12059861,-82.32957247
Georgia,Towns,13281,34.91369188,-83.7410746
Georgia,Treutlen,13283,32.40422134,-82.56904553
Georgia,Troup,13285,33.03349196,-85.02812115
Georgia,Turner,13287,31.71612656,-83.62069378
Georgia,Twiggs,13289,32.67435595,-83.43078662
Georgia,Union,13291,34.82995757,-83.98967069
Georgia,Upson,13293,32.87920671,-84.30024826
Georgia,Walker,13295,34.73376362,-85.30165174
Georgia,Walton,13297,33.78017694,-83.73552314
Georgia,Ware,13299,31.05449097,-82.42224148
Georgia,Warren,13301,33.41146451,-82.67795848
Georgia,Washington,13303,32.96711864,-82.79357039
Georgia,Wayne,13305,31.5521809,-81.91894878
Georgia,Webster,13307,32.04066113,-84.54742852
Georgia,Wheeler,13309,32.12009104,-82.72574721
Georgia,White,13311,34.64624278,-83.74905525
Georgia,Whitfield,13313,34.80987459,-84.96093476
Georgia,Wilcox,13315,31.97496928,-83.43438555
Georgia,Wilkes,13317,33.78290391,-82.74286107
Georgia,Wilkinson,13319,32.80291082,-83.17140684
Georgia,Worth,13321,31.55162306,-83.85090513
Hawaii,Hawaii,15001,19.60121157,-155.5210167
Hawaii,Honolulu,15003,21.45803166,-157.9712182
Hawaii,Kalawao,15005,21.17882515,-156.9583592
Hawaii,Kauai,15007,22.03935037,-159.5966786
Hawaii,Maui,15009,20.86399628,-156.5689097
Idaho,Ada,16001,43.4526575,-116.2415516
Idaho,Adams,16003,44.89333571,-116.4545247
Idaho,Bannock,16005,42.67002716,-112.2233311
Idaho,Bear Lake,16007,42.28269683,-111.3289238
Idaho,Benewah,16009,47.21754179,-116.6586851
Idaho,Bingham,16011,43.2167288,-112.3978437
Idaho,Blaine,16013,43.4085812,-113.9752658
Idaho,Boise,16015,43.98829931,-115.7309284
Idaho,Bonner,16017,48.29996017,-116.6017932
Idaho,Bonneville,16019,43.38713372,-111.6161537
Idaho,Boundary,16021,48.76684761,-116.4630179
Idaho,Butte,16023,43.72592209,-113.1735463
Idaho,Camas,16025,43.46665742,-114.8065892
Idaho,Canyon,16027,43.61970148,-116.7095499
Idaho,Caribou,16029,42.77149116,-111.5597683
Idaho,Cassia,16031,42.28347888,-113.6012409
Idaho,Clark,16033,44.28496071,-112.3505704
Idaho,Clearwater,16035,46.67459924,-115.6622393
Idaho,Custer,16037,44.24186819,-114.2855494
Idaho,Elmore,16039,43.3507101,-115.4701578
Idaho,Franklin,16041,42.18332217,-111.8149666
Idaho,Fremont,16043,44.22800938,-111.4809943
Idaho,Gem,16045,44.06482372,-116.398376
Idaho,Gooding,16047,42.96927962,-114.8108306
Idaho,Idaho,16049,45.84721541,-115.4634436
Idaho,Jefferson,16051,43.82078483,-112.3131749
Idaho,Jerome,16053,42.68891267,-114.2655033
Idaho,Kootenai,16055,47.67282258,-116.7020872
Idaho,Latah,16057,46.81587887,-116.7113698
Idaho,Lemhi,16059,44.9438088,-113.9309747
Idaho,Lewis,16061,46.23315327,-116.434146
Idaho,Lincoln,16063,43.0012336,-114.1358773
Idaho,Madison,16065,43.78141028,-111.6538474
Idaho,Minidoka,16067,42.85518524,-113.6357257
Idaho,Nez Perce,16069,46.32638236,-116.7500975
Idaho,Oneida,16071,42.1949428,-112.5407838
Idaho,Owyhee,16073,42.58016894,-116.1693871
Idaho,Payette,16075,44.00545243,-116.7647695
Idaho,Power,16077,42.69254894,-112.8395742
Idaho,Shoshone,16079,47.35364087,-115.8916749
Idaho,Teton,16081,43.75303583,-111.2056773
Idaho,Twin Falls,16083,42.35440512,-114.6685381
Idaho,Valley,16085,44.76728382,-115.5676773
Idaho,Washington,16087,44.45275475,-116.7847688
Illinois,Adams,17001,39.98815591,-91.18786813
Illinois,Alexander,17003,37.18049267,-89.32910838
Illinois,Bond,17005,38.88829622,-89.43534887
Illinois,Boone,17007,42.32359279,-88.82345779
Illinois,Brown,17009,39.96209138,-90.75068024
Illinois,Bureau,17011,41.40385234,-89.5283051
Illinois,Calhoun,17013,39.16840183,-90.66330078
Illinois,Carroll,17015,42.06823429,-89.93395545
Illinois,Cass,17017,39.96991073,-90.24734436
Illinois,Champaign,17019,40.13919438,-88.20046615
Illinois,Christian,17021,39.54581621,-89.27780482
Illinois,Clark,17023,39.33425789,-87.78705622
Illinois,Clay,17025,38.75388572,-88.48914513
Illinois,Clinton,17027,38.60704876,-89.42385254
Illinois,Coles,17029,39.51949084,-88.22358557
Illinois,Cook,17031,41.84144849,-87.81658794
Illinois,Crawford,17033,39.0032229,-87.75954624
Illinois,Cumberland,17035,39.27432424,-88.2401158
Illinois,De Witt,17039,40.17514519,-88.90959682
Illinois,DeKalb,17037,41.89373302,-88.76958483
Illinois,Douglas,17041,39.76768052,-88.21854195
Illinois,DuPage,17043,41.85116968,-88.08642662
Illinois,Edgar,17045,39.6809186,-87.74759563
Illinois,Edwards,17047,38.41353228,-88.05720863
Illinois,Effingham,17049,39.05935711,-88.58969584
Illinois,Fayette,17051,39.00072038,-89.02452658
Illinois,Ford,17053,40.59706922,-88.22350769
Illinois,Franklin,17055,37.99189086,-88.92567818
Illinois,Fulton,17057,40.47289135,-90.20862357
Illinois,Gallatin,17059,37.76430935,-88.22953869
Illinois,Greene,17061,39.35907414,-90.388865
Illinois,Grundy,17063,41.28569601,-88.41905692
Illinois,Hamilton,17065,38.08163641,-88.53883373
Illinois,Hancock,17067,40.40423981,-91.16313899
Illinois,Hardin,17069,37.51810645,-88.26873022
Illinois,Henderson,17071,40.81908672,-90.92491462
Illinois,Henry,17073,41.3533994,-90.13296166
Illinois,Iroquois,17075,40.74717633,-87.82466784
Illinois,Jackson,17077,37.78595185,-89.38232563
Illinois,Jasper,17079,39.01054275,-88.15437049
Illinois,Jefferson,17081,38.29980057,-88.9240025
Illinois,Jersey,17083,39.08869046,-90.35393073
Illinois,Jo Daviess,17085,42.36542373,-90.21094405
Illinois,Johnson,17087,37.45939802,-88.88165419
Illinois,Kane,17089,41.93842729,-88.42861412
Illinois,Kankakee,17091,41.13746989,-87.86205334
Illinois,Kendall,17093,41.59081014,-88.42869583
Illinois,Knox,17095,40.93148779,-90.2133034
Illinois,Lake,17097,42.3224907,-88.00367925
Illinois,LaSalle,17099,41.3442613,-88.88633881
Illinois,Lawrence,17101,38.71987914,-87.72884035
Illinois,Lee,17103,41.74583951,-89.29977132
Illinois,Livingston,17105,40.89188292,-88.55784752
Illinois,Logan,17107,40.12581572,-89.36638784
Illinois,Macon,17115,39.86064913,-88.96342505
Illinois,Macoupin,17117,39.26119767,-89.92424028
Illinois,Madison,17119,38.83042506,-89.90422563
Illinois,Marion,17121,38.64963204,-88.91899208
Illinois,Marshall,17123,41.0327901,-89.34510444
Illinois,Mason,17125,40.23917274,-89.91824452
Illinois,Massac,17127,37.22078441,-88.71036614
Illinois,McDonough,17109,40.45674722,-90.67775541
Illinois,McHenry,17111,42.32451172,-88.45248227
Illinois,McLean,17113,40.48996987,-88.84621113
Illinois,Menard,17129,40.02742725,-89.80246001
Illinois,Mercer,17131,41.20596782,-90.74290052
Illinois,Monroe,17133,38.27594376,-90.17761038
Illinois,Montgomery,17135,39.23198845,-89.47809254
Illinois,Morgan,17137,39.71654544,-90.20255104
Illinois,Moultrie,17139,39.64187451,-88.62099969
Illinois,Ogle,17141,42.04165196,-89.32184679
Illinois,Peoria,17143,40.78702156,-89.76078901
Illinois,Perry,17145,38.08510853,-89.36856219
Illinois,Piatt,17147,40.01360584,-88.59319339
Illinois,Pike,17149,39.62265059,-90.8877017
Illinois,Pope,17151,37.41391284,-88.56152109
Illinois,Pulaski,17153,37.22631423,-89.13085001
Illinois,Putnam,17155,41.2013541,-89.2869272
Illinois,Randolph,17157,38.05095369,-89.82512254
Illinois,Richland,17159,38.71240969,-88.08475366
Illinois,Rock Island,17161,41.46613806,-90.57042164
Illinois,Saline,17165,37.75332999,-88.54119706
Illinois,Sangamon,17167,39.75836914,-89.65872023
Illinois,Schuyler,17169,40.1571798,-90.61114163
Illinois,Scott,17171,39.6429169,-90.47814431
Illinois,Shelby,17173,39.39133527,-88.80611122
Illinois,St. Clair,17163,38.46996033,-89.93063427
Illinois,Stark,17175,41.09309773,-89.79745866
Illinois,Stephenson,17177,42.35129217,-89.662598
Illinois,Tazewell,17179,40.50716185,-89.51404662
Illinois,Union,17181,37.47119609,-89.25548938
Illinois,Vermilion,17183,40.18417171,-87.73384359
Illinois,Wabash,17185,38.44272901,-87.84922065
Illinois,Warren,17187,40.84925021,-90.6147432
Illinois,Washington,17189,38.35309213,-89.40982703
Illinois,Wayne,17191,38.42955355,-88.42586459
Illinois,White,17193,38.08706198,-88.17657461
Illinois,Whiteside,17195,41.75509713,-89.91556058
Illinois,Will,17197,41.44619267,-87.97862712
Illinois,Williamson,17199,37.73033511,-88.92994027
Illinois,Winnebago,17201,42.33641854,-89.16085327
Illinois,Woodford,17203,40.78579374,-89.20973757
Indiana,Adams,18001,40.7457653,-84.93671406
Indiana,Allen,18003,41.09194313,-85.06800636
Indiana,Bartholomew,18005,39.20744865,-85.89558181
Indiana,Benton,18007,40.60626947,-87.31093999
Indiana,Blackford,18009,40.47388153,-85.32499702
Indiana,Boone,18011,40.0509304,-86.46841646
Indiana,Brown,18013,39.19605589,-86.22868909
Indiana,Carroll,18015,40.5807832,-86.56198812
Indiana,Cass,18017,40.76135835,-86.34830753
Indiana,Clark,18019,38.48015445,-85.70510334
Indiana,Clay,18021,39.39561833,-87.11723506
Indiana,Clinton,18023,40.30319754,-86.47277257
Indiana,Crawford,18025,38.28814402,-86.44518825
Indiana,Daviess,18027,38.70186039,-87.07185406
Indiana,Dearborn,18029,39.14647946,-84.97333539
Indiana,Decatur,18031,39.30712658,-85.50087166
Indiana,DeKalb,18033,41.39804622,-84.99906934
Indiana,Delaware,18035,40.22787247,-85.39732772
Indiana,Dubois,18037,38.36597551,-86.8792417
Indiana,Elkhart,18039,41.59761169,-85.85875695
Indiana,Fayette,18041,39.63684962,-85.17797541
Indiana,Floyd,18043,38.32117957,-85.90385377
Indiana,Fountain,18045,40.12361933,-87.24217689
Indiana,Franklin,18047,39.4142482,-85.06062647
Indiana,Fulton,18049,41.0469907,-86.26252745
Indiana,Gibson,18051,38.30393723,-87.58054938
Indiana,Grant,18053,40.51587228,-85.65468702
Indiana,Greene,18055,39.03630547,-86.96223202
Indiana,Hamilton,18057,40.07306535,-86.05244729
Indiana,Hancock,18059,39.82304555,-85.77566351
Indiana,Harrison,18061,38.19467379,-86.10948271
Indiana,Hendricks,18063,39.76719009,-86.51037283
Indiana,Henry,18065,39.93029017,-85.39625719
Indiana,Howard,18067,40.48527731,-86.11351892
Indiana,Huntington,18069,40.82907273,-85.48822092
Indiana,Jackson,18071,38.9091582,-86.03851889
Indiana,Jasper,18073,41.02078733,-87.11553319
Indiana,Jay,18075,40.43781032,-85.00576229
Indiana,Jefferson,18077,38.78576239,-85.43633383
Indiana,Jennings,18079,38.99588883,-85.62710784
Indiana,Johnson,18081,39.48994426,-86.10149107
Indiana,Knox,18083,38.68861576,-87.4194665
Indiana,Kosciusko,18085,41.24521668,-85.86312322
Indiana,LaGrange,18087,41.64232188,-85.42674232
Indiana,Lake,18089,41.41874274,-87.38277575
Indiana,LaPorte,18091,41.54366008,-86.74072188
Indiana,Lawrence,18093,38.84112637,-86.48361629
Indiana,Madison,18095,40.16143691,-85.71964711
Indiana,Marion,18097,39.78163624,-86.13826325
Indiana,Marshall,18099,41.32467367,-86.26185087
Indiana,Martin,18101,38.7099921,-86.80373186
Indiana,Miami,18103,40.76940965,-86.04525048
Indiana,Monroe,18105,39.16130004,-86.52414358
Indiana,Montgomery,18107,40.04034823,-86.89335024
Indiana,Morgan,18109,39.47899078,-86.44573375
Indiana,Newton,18111,40.95610449,-87.39635768
Indiana,Noble,18113,41.39672484,-85.41966713
Indiana,Ohio,18115,38.955305,-84.96515993
Indiana,Orange,18117,38.5411892,-86.49523093
Indiana,Owen,18119,39.31145587,-86.83900724
Indiana,Parke,18121,39.77202286,-87.20375833
Indiana,Perry,18123,38.07809328,-86.63741946
Indiana,Pike,18125,38.40112197,-87.23574907
Indiana,Porter,18127,41.45986947,-87.06848888
Indiana,Posey,18129,38.02097333,-87.86480429
Indiana,Pulaski,18131,41.04166107,-86.69890683
Indiana,Putnam,18133,39.66437981,-86.84517605
Indiana,Randolph,18135,40.15734772,-85.01139319
Indiana,Ripley,18137,39.10235626,-85.26212744
Indiana,Rush,18139,39.62002287,-85.4655599
Indiana,Scott,18143,38.68672078,-85.74627859
Indiana,Shelby,18145,39.52305623,-85.7915857
Indiana,Spencer,18147,38.01519732,-87.0079644
Indiana,St. Joseph,18141,41.61756781,-86.29040834
Indiana,Starke,18149,41.27890281,-86.64686895
Indiana,Steuben,18151,41.64423868,-85.00101094
Indiana,Sullivan,18153,39.08952258,-87.41414469
Indiana,Switzerland,18155,38.82767338,-85.03022429
Indiana,Tippecanoe,18157,40.38872739,-86.89413959
Indiana,Tipton,18159,40.31123252,-86.05234925
Indiana,Union,18161,39.62550777,-84.92497066
Indiana,Vanderburgh,18163,38.02658833,-87.58763124
Indiana,Vermillion,18165,39.8523352,-87.46160542
Indiana,Vigo,18167,39.42944561,-87.39169027
Indiana,Wabash,18169,40.84704239,-85.79328272
Indiana,Warren,18171,40.34728141,-87.35602659
Indiana,Warrick,18173,38.08922676,-87.2716085
Indiana,Washington,18175,38.60219804,-86.1049363
Indiana,Wayne,18177,39.8633444,-85.01044989
Indiana,Wells,18179,40.72934187,-85.22132966
Indiana,White,18181,40.74911165,-86.86492015
Indiana,Whitley,18183,41.13863784,-85.50791236
Iowa,Adair,19001,41.33075609,-94.47105874
Iowa,Adams,19003,41.02903567,-94.69932645
Iowa,Allamakee,19005,43.28383218,-91.37860922
Iowa,Appanoose,19007,40.74324454,-92.86865906
Iowa,Audubon,19009,41.6844628,-94.90581859
Iowa,Benton,19011,42.08011739,-92.06463573
Iowa,Black Hawk,19013,42.4704581,-92.30524729
Iowa,Boone,19015,42.03657094,-93.9313999
Iowa,Bremer,19017,42.77461496,-92.31795937
Iowa,Buchanan,19019,42.4709188,-91.83510825
Iowa,Buena Vista,19021,42.73545875,-95.15100162
Iowa,Butler,19023,42.73172833,-92.79015971
Iowa,Calhoun,19025,42.38521079,-94.64046046
Iowa,Carroll,19027,42.03617207,-94.86032705
Iowa,Cass,19029,41.33149454,-94.92792482
Iowa,Cedar,19031,41.77233777,-91.13246684
Iowa,Cerro Gordo,19033,43.08177563,-93.2612239
Iowa,Cherokee,19035,42.73538914,-95.62389402
Iowa,Chickasaw,19037,43.06001295,-92.31773347
Iowa,Clarke,19039,41.02868181,-93.78499767
Iowa,Clay,19041,43.08247182,-95.15096481
Iowa,Clayton,19043,42.84443388,-91.34133693
Iowa,Clinton,19045,41.89981633,-90.53275096
Iowa,Crawford,19047,42.03718237,-95.3819718
Iowa,Dallas,19049,41.68560356,-94.04127625
Iowa,Davis,19051,40.74773536,-92.41005468
Iowa,Decatur,19053,40.73742757,-93.78645949
Iowa,Delaware,19055,42.47104597,-91.3664492
Iowa,Des Moines,19057,40.92012606,-91.18326592
Iowa,Dickinson,19059,43.37787725,-95.1510206
Iowa,Dubuque,19061,42.46815349,-90.88181925
Iowa,Emmet,19063,43.37782951,-94.67858943
Iowa,Fayette,19065,42.86271799,-91.8441231
Iowa,Floyd,19067,43.0600053,-92.78940097
Iowa,Franklin,19069,42.73270384,-93.26256925
Iowa,Fremont,19071,40.7454272,-95.60129045
Iowa,Greene,19073,42.03614551,-94.39658081
Iowa,Grundy,19075,42.40183723,-92.78829551
Iowa,Guthrie,19077,41.68378965,-94.50111014
Iowa,Hamilton,19079,42.38382428,-93.70197703
Iowa,Hancock,19081,43.08178477,-93.73454884
Iowa,Hardin,19083,42.38353877,-93.23654611
Iowa,Harrison,19085,41.68330137,-95.81558439
Iowa,Henry,19087,40.98767962,-91.54436349
Iowa,Howard,19089,43.35671042,-92.31702714
Iowa,Humboldt,19091,42.7764426,-94.20722537
Iowa,Ida,19093,42.38696136,-95.51355387
Iowa,Iowa,19095,41.68630265,-92.0643373
Iowa,Jackson,19097,42.17178824,-90.57354837
Iowa,Jasper,19099,41.68576082,-93.05567785
Iowa,Jefferson,19101,41.03192394,-91.94849466
Iowa,Johnson,19103,41.67169354,-91.58754744
Iowa,Jones,19105,42.12118609,-91.13139641
Iowa,Keokuk,19107,41.33649833,-92.1785067
Iowa,Kossuth,19109,43.20405458,-94.20691791
Iowa,Lee,19111,40.64181461,-91.48183025
Iowa,Linn,19113,42.07923082,-91.59809485
Iowa,Louisa,19115,41.21842119,-91.26102611
Iowa,Lucas,19117,41.02958964,-93.32780803
Iowa,Lyon,19119,43.38107862,-96.20926845
Iowa,Madison,19121,41.33081904,-94.01554631
Iowa,Mahaska,19123,41.33521503,-92.64083907
Iowa,Marion,19125,41.33445101,-93.09934783
Iowa,Marshall,19127,42.03586837,-92.9990819
Iowa,Mills,19129,41.03299766,-95.61920963
Iowa,Mitchell,19131,43.35638371,-92.78887719
Iowa,Monona,19133,42.05220391,-95.95743843
Iowa,Monroe,19135,41.02988815,-92.8690667
Iowa,Montgomery,19137,41.03018714,-95.15642896
Iowa,Muscatine,19139,41.48370744,-91.1121697
Iowa,O'Brien,19141,43.08310673,-95.62474482
Iowa,Osceola,19143,43.37824276,-95.62422844
Iowa,Page,19145,40.7393172,-95.1497813
Iowa,Palo Alto,19147,43.08193849,-94.67824621
Iowa,Plymouth,19149,42.737633,-96.21366621
Iowa,Pocahontas,19151,42.73420133,-94.67862564
Iowa,Polk,19153,41.68679484,-93.57767461
Iowa,Pottawattamie,19155,41.33640314,-95.53907776
Iowa,Poweshiek,19157,41.68625425,-92.53155731
Iowa,Ringgold,19159,40.73518949,-94.24368535
Iowa,Sac,19161,42.38624071,-95.10547892
Iowa,Scott,19163,41.63935978,-90.61959493
Iowa,Shelby,19165,41.6850066,-95.31015553
Iowa,Sioux,19167,43.08221074,-96.1767568
Iowa,Story,19169,42.03621213,-93.46499005
Iowa,Tama,19171,42.07991767,-92.53266945
Iowa,Taylor,19173,40.73710579,-94.69778563
Iowa,Union,19175,41.0277278,-94.24234847
Iowa,Van Buren,19177,40.75326764,-91.95017958
Iowa,Wapello,19179,41.03064984,-92.40954728
Iowa,Warren,19181,41.33559454,-93.56007641
Iowa,Washington,19183,41.33577126,-91.71725711
Iowa,Wayne,19185,40.73969028,-93.32752197
Iowa,Webster,19187,42.42853483,-94.17987389
Iowa,Winnebago,19189,43.37751174,-93.73407298
Iowa,Winneshiek,19191,43.29094334,-91.84422722
Iowa,Woodbury,19193,42.38979414,-96.0459439
Iowa,Worth,19195,43.37750768,-93.26087602
Iowa,Wright,19197,42.73305373,-93.73515113
Kansas,Allen,20001,37.88582951,-95.30030847
Kansas,Anderson,20003,38.21413251,-95.29272815
Kansas,Atchison,20005,39.53185661,-95.30870026
Kansas,Barber,20007,37.2288586,-98.68460053
Kansas,Barton,20009,38.47889676,-98.75636726
Kansas,Bourbon,20011,37.85508555,-94.84865997
Kansas,Brown,20013,39.82652589,-95.56421698
Kansas,Butler,20015,37.78134351,-96.83878537
Kansas,Chase,20017,38.30292938,-96.59563862
Kansas,Chautauqua,20019,37.14994405,-96.2454192
Kansas,Cherokee,20021,37.16928494,-94.8462897
Kansas,Cheyenne,20023,39.78580976,-101.7318201
Kansas,Clark,20025,37.23577007,-99.81883015
Kansas,Clay,20027,39.34948772,-97.16518128
Kansas,Cloud,20029,39.48028352,-97.64925343
Kansas,Coffey,20031,38.2365018,-95.73379515
Kansas,Comanche,20033,37.1911452,-99.27113247
Kansas,Cowley,20035,37.23781842,-96.83776647
Kansas,Crawford,20037,37.50675523,-94.85245778
Kansas,Decatur,20039,39.78468441,-100.4594081
Kansas,Dickinson,20041,38.86600962,-97.15532383
Kansas,Doniphan,20043,39.79067154,-95.14056866
Kansas,Douglas,20045,38.88503636,-95.2925121
Kansas,Edwards,20047,37.88735543,-99.31263309
Kansas,Elk,20049,37.45338105,-96.24369667
Kansas,Ellis,20051,38.91458712,-99.31751551
Kansas,Ellsworth,20053,38.69677695,-98.20462799
Kansas,Finney,20055,38.04340344,-100.7381938
Kansas,Ford,20057,37.69200114,-99.88825298
Kansas,Franklin,20059,38.56443815,-95.28644341
Kansas,Geary,20061,38.99871131,-96.7577178
Kansas,Gove,20063,38.91588178,-100.4829321
Kansas,Graham,20065,39.34987223,-99.88332493
Kansas,Grant,20067,37.56227336,-101.3079758
Kansas,Gray,20069,37.73836671,-100.4369088
Kansas,Greeley,20071,38.4808095,-101.8061079
Kansas,Greenwood,20073,37.8774388,-96.23250453
Kansas,Hamilton,20075,37.99978709,-101.7921066
Kansas,Harper,20077,37.19175361,-98.07578384
Kansas,Harvey,20079,38.04293782,-97.42747573
Kansas,Haskell,20081,37.5620394,-100.8710738
Kansas,Hodgeman,20083,38.08780079,-99.89829881
Kansas,Jackson,20085,39.41673394,-95.79356799
Kansas,Jefferson,20087,39.2347941,-95.38289232
Kansas,Jewell,20089,39.78470589,-98.21820662
Kansas,Johnson,20091,38.88548175,-94.82250877
Kansas,Kearny,20093,38.00017981,-101.321681
Kansas,Kingman,20095,37.55909527,-98.13638678
Kansas,Kiowa,20097,37.55848695,-99.2856537
Kansas,Labette,20099,37.19113093,-95.29849679
Kansas,Lane,20101,38.48119447,-100.4660754
Kansas,Leavenworth,20103,39.20183497,-95.03620809
Kansas,Lincoln,20105,39.04549684,-98.20756994
Kansas,Linn,20107,38.21267844,-94.84254089
Kansas,Logan,20109,38.91735806,-101.148475
Kansas,Lyon,20111,38.45576156,-96.15275715
Kansas,Marion,20115,38.35855394,-97.0985251
Kansas,Marshall,20117,39.78359669,-96.52278974
Kansas,McPherson,20113,38.39184858,-97.64769869
Kansas,Meade,20119,37.23859987,-100.364831
Kansas,Miami,20121,38.56383358,-94.83832189
Kansas,Mitchell,20123,39.39331582,-98.20906732
Kansas,Montgomery,20125,37.19236568,-95.74329258
Kansas,Morris,20127,38.68827511,-96.65128437
Kansas,Morton,20129,37.19141121,-101.7992519
Kansas,Nemaha,20131,39.78345387,-96.01392079
Kansas,Neosho,20133,37.55862897,-95.30670046
Kansas,Ness,20135,38.47974157,-99.91547333
Kansas,Norton,20137,39.78443827,-99.90286639
Kansas,Osage,20139,38.65235984,-95.72707998
Kansas,Osborne,20141,39.3503437,-98.76753828
Kansas,Ottawa,20143,39.13237408,-97.65020313
Kansas,Pawnee,20145,38.18108732,-99.23692334
Kansas,Phillips,20147,39.78465501,-99.34668865
Kansas,Pottawatomie,20149,39.37925655,-96.34564657
Kansas,Pratt,20151,37.64780729,-98.73922153
Kansas,Rawlins,20153,39.78525843,-101.0761617
Kansas,Reno,20155,37.95230263,-98.08607292
Kansas,Republic,20157,39.82799632,-97.65036709
Kansas,Rice,20159,38.34616184,-98.19992118
Kansas,Riley,20161,39.28935726,-96.73420026
Kansas,Rooks,20163,39.35022773,-99.32484567
Kansas,Rush,20165,38.52275276,-99.30863983
Kansas,Russell,20167,38.91462787,-98.76254297
Kansas,Saline,20169,38.78369175,-97.65185177
Kansas,Scott,20171,38.48222076,-100.9066539
Kansas,Sedgwick,20173,37.6842718,-97.4608198
Kansas,Seward,20175,37.19324632,-100.8507201
Kansas,Shawnee,20177,39.04100763,-95.7557264
Kansas,Sheridan,20179,39.35018161,-100.4418259
Kansas,Sherman,20181,39.35147699,-101.7197624
Kansas,Smith,20183,39.78516566,-98.78566062
Kansas,Stafford,20185,38.03100851,-98.71762001
Kansas,Stanton,20187,37.56304714,-101.7843534
Kansas,Stevens,20189,37.1923008,-101.3118967
Kansas,Sumner,20191,37.23682549,-97.47721621
Kansas,Thomas,20193,39.35107575,-101.0553705
Kansas,Trego,20195,38.91467218,-99.87284448
Kansas,Wabaunsee,20197,38.95471985,-96.20350509
Kansas,Wallace,20199,38.91686134,-101.7638876
Kansas,Washington,20201,39.78420784,-97.0875323
Kansas,Wichita,20203,38.48178252,-101.3471509
Kansas,Wilson,20205,37.55937174,-95.74323255
Kansas,Woodson,20207,37.8865336,-95.74006277
Kansas,Wyandotte,20209,39.11727348,-94.76378225
Kentucky,Adair,21001,37.10459774,-85.28129668
Kentucky,Allen,21003,36.75197631,-86.19457544
Kentucky,Anderson,21005,38.00671029,-84.99171713
Kentucky,Ballard,21007,37.05842757,-88.99427697
Kentucky,Barren,21009,36.96469836,-85.93338945
Kentucky,Bath,21011,38.14735938,-83.74588932
Kentucky,Bell,21013,36.73355174,-83.67766671
Kentucky,Boone,21015,38.97065142,-84.72615357
Kentucky,Bourbon,21017,38.2054607,-84.21827874
Kentucky,Boyd,21019,38.36176608,-82.68652187
Kentucky,Boyle,21021,37.62680923,-84.8633779
Kentucky,Bracken,21023,38.69158994,-84.08532444
Kentucky,Breathitt,21025,37.52333168,-83.31959161
Kentucky,Breckinridge,21027,37.77377239,-86.42885017
Kentucky,Bullitt,21029,37.97162523,-85.68955617
Kentucky,Butler,21031,37.20946153,-86.68748787
Kentucky,Caldwell,21033,37.14749129,-87.86948214
Kentucky,Calloway,21035,36.62093411,-88.2731593
Kentucky,Campbell,21037,38.94384345,-84.37875208
Kentucky,Carlisle,21039,36.85372876,-88.9669222
Kentucky,Carroll,21041,38.66599534,-85.12601074
Kentucky,Carter,21043,38.31690743,-83.05092385
Kentucky,Casey,21045,37.32533118,-84.92726209
Kentucky,Christian,21047,36.89267803,-87.49055367
Kentucky,Clark,21049,37.9689263,-84.14615986
Kentucky,Clay,21051,37.16451126,-83.712575
Kentucky,Clinton,21053,36.72581156,-85.13377529
Kentucky,Crittenden,21055,37.35839237,-88.0882609
Kentucky,Cumberland,21057,36.78926125,-85.39050034
Kentucky,Daviess,21059,37.73028906,-87.0901948
Kentucky,Edmonson,21061,37.21218923,-86.23955613
Kentucky,Elliott,21063,38.11624059,-83.09771563
Kentucky,Estill,21065,37.69241417,-83.95956369
Kentucky,Fayette,21067,38.0368225,-84.45576892
Kentucky,Fleming,21069,38.36758311,-83.69657514
Kentucky,Floyd,21071,37.56213922,-82.74750924
Kentucky,Franklin,21073,38.2379395,-84.87962551
Kentucky,Fulton,21075,36.55238827,-89.20140068
Kentucky,Gallatin,21077,38.75398691,-84.8558382
Kentucky,Garrard,21079,37.6388668,-84.53289319
Kentucky,Grant,21081,38.64962758,-84.62415957
Kentucky,Graves,21083,36.72292505,-88.65143315
Kentucky,Grayson,21085,37.46231118,-86.34248968
Kentucky,Green,21087,37.26484328,-85.5540745
Kentucky,Greenup,21089,38.54332505,-82.9215658
Kentucky,Hancock,21091,37.83766422,-86.78280584
Kentucky,Hardin,21093,37.6976111,-85.96319251
Kentucky,Harlan,21095,36.85699301,-83.21899516
Kentucky,Harrison,21097,38.44188174,-84.32869741
Kentucky,Hart,21099,37.29943898,-85.88461055
Kentucky,Henderson,21101,37.79344553,-87.57392021
Kentucky,Henry,21103,38.44942688,-85.11587507
Kentucky,Hickman,21105,36.6794808,-88.97875928
Kentucky,Hopkins,21107,37.30939025,-87.54670406
Kentucky,Jackson,21109,37.41866422,-83.99825483
Kentucky,Jefferson,21111,38.18664655,-85.65931031
Kentucky,Jessamine,21113,37.87119786,-84.58252003
Kentucky,Johnson,21115,37.85106355,-82.8264322
Kentucky,Kenton,21117,38.93950319,-84.53241199
Kentucky,Knott,21119,37.35388197,-82.94981134
Kentucky,Knox,21121,36.89225732,-83.85403396
Kentucky,Larue,21123,37.54567114,-85.70138352
Kentucky,Laurel,21125,37.10975748,-84.11321779
Kentucky,Lawrence,21127,38.07136018,-82.72882223
Kentucky,Lee,21129,37.59645942,-83.71513901
Kentucky,Leslie,21131,37.09246661,-83.37999606
Kentucky,Letcher,21133,37.12306748,-82.85346474
Kentucky,Lewis,21135,38.53184419,-83.37735618
Kentucky,Lincoln,21137,37.45475628,-84.6565327
Kentucky,Livingston,21139,37.21137452,-88.34797529
Kentucky,Logan,21141,36.85949479,-86.877635
Kentucky,Lyon,21143,37.02080035,-88.07886257
Kentucky,Madison,21151,37.71659336,-84.27220275
Kentucky,Magoffin,21153,37.70820545,-83.0657714
Kentucky,Marion,21155,37.55218078,-85.26898542
Kentucky,Marshall,21157,36.8800707,-88.32803576
Kentucky,Martin,21159,37.79990579,-82.51247478
Kentucky,Mason,21161,38.59471935,-83.82151043
Kentucky,McCracken,21145,37.05350953,-88.70445755
Kentucky,McCreary,21147,36.73874143,-84.48102924
Kentucky,McLean,21149,37.5301951,-87.26803443
Kentucky,Meade,21163,37.96163597,-86.21028219
Kentucky,Menifee,21165,37.94090733,-83.59985712
Kentucky,Mercer,21167,37.81474237,-84.87488475
Kentucky,Metcalfe,21169,36.99459295,-85.63123699
Kentucky,Monroe,21171,36.71225341,-85.71596443
Kentucky,Montgomery,21173,38.03253032,-83.9145241
Kentucky,Morgan,21175,37.92465657,-83.25558245
Kentucky,Muhlenberg,21177,37.21425819,-87.14632053
Kentucky,Nelson,21179,37.80335779,-85.4657193
Kentucky,Nicholas,21181,38.33342292,-84.01889177
Kentucky,Ohio,21183,37.47751843,-86.85368087
Kentucky,Oldham,21185,38.39791089,-85.448222
Kentucky,Owen,21187,38.51679143,-84.82404619
Kentucky,Owsley,21189,37.42823949,-83.68811419
Kentucky,Pendleton,21191,38.69607718,-84.35599463
Kentucky,Perry,21193,37.25023553,-83.22922731
Kentucky,Pike,21195,37.47088263,-82.39487445
Kentucky,Powell,21197,37.83218794,-83.82553961
Kentucky,Pulaski,21199,37.10466131,-84.57629079
Kentucky,Robertson,21201,38.51923469,-84.05055616
Kentucky,Rockcastle,21203,37.36642393,-84.31176452
Kentucky,Rowan,21205,38.19484205,-83.42088935
Kentucky,Russell,21207,36.99308373,-85.06070117
Kentucky,Scott,21209,38.29622293,-84.5816631
Kentucky,Shelby,21211,38.21476019,-85.194223
Kentucky,Simpson,21213,36.74058474,-86.58047435
Kentucky,Spencer,21215,38.03223971,-85.32749335
Kentucky,Taylor,21217,37.3677562,-85.3329931
Kentucky,Todd,21219,36.8381152,-87.17878374
Kentucky,Trigg,21221,36.80767017,-87.87333656
Kentucky,Trimble,21223,38.61056487,-85.33775972
Kentucky,Union,21225,37.66166713,-87.94300009
Kentucky,Warren,21227,36.99903045,-86.42672751
Kentucky,Washington,21229,37.75599461,-85.17407732
Kentucky,Wayne,21231,36.80310688,-84.8251971
Kentucky,Webster,21233,37.52168356,-87.67989953
Kentucky,Whitley,21235,36.75700531,-84.14541217
Kentucky,Wolfe,21237,37.73941626,-83.49303612
Kentucky,Woodford,21239,38.04178222,-84.7417556
Louisiana,Acadia,22001,30.2950649,-92.41419698
Louisiana,Allen,22003,30.65385745,-92.82442028
Louisiana,Ascension,22005,30.20406249,-90.9132841
Louisiana,Assumption,22007,29.89946234,-91.06461642
Louisiana,Avoyelles,22009,31.07796211,-92.00079449
Louisiana,Beauregard,22011,30.64836518,-93.34173616
Louisiana,Bienville,22013,32.34569994,-93.05398492
Louisiana,Bossier,22015,32.67932307,-93.60460152
Louisiana,Caddo,22017,32.57991587,-93.88375652
Louisiana,Calcasieu,22019,30.22931235,-93.35400434
Louisiana,Caldwell,22021,32.0902519,-92.11752148
Louisiana,Cameron,22023,29.87592238,-93.19310676
Louisiana,Catahoula,22025,31.66778967,-91.84526385
Louisiana,Claiborne,22027,32.82308512,-92.99526883
Louisiana,Concordia,22029,31.44817835,-91.63814433
Louisiana,De Soto,22031,32.05457447,-93.74130302
Louisiana,East Baton Rouge,22033,30.53842039,-91.09777565
Louisiana,East Carroll,22035,32.73926954,-91.23425694
Louisiana,East Feliciana,22037,30.84425359,-91.04976723
Louisiana,Evangeline,22039,30.72985248,-92.39915924
Louisiana,Franklin,22041,32.13675181,-91.67589857
Louisiana,Grant,22043,31.59882456,-92.56124347
Louisiana,Iberia,22045,29.86803617,-91.75871777
Louisiana,Iberville,22047,30.25734305,-91.3499598
Louisiana,Jackson,22049,32.30251776,-92.55692092
Louisiana,Jefferson,22051,29.74075478,-90.11115756
Louisiana,Jefferson Davis,22053,30.26896765,-92.81210004
Louisiana,Lafayette,22055,30.2049055,-92.06959876
Louisiana,Lafourche,22057,29.52470226,-90.40976986
Louisiana,LaSalle,22059,31.67884782,-92.15907765
Louisiana,Lincoln,22061,32.6003154,-92.6659741
Louisiana,Livingston,22063,30.44143993,-90.73061664
Louisiana,Madison,22065,32.36918118,-91.23973355
Louisiana,Morehouse,22067,32.81686191,-91.80421614
Louisiana,Natchitoches,22069,31.72321584,-93.09816516
Louisiana,Orleans,22071,30.06971951,-89.92660315
Louisiana,Ouachita,22073,32.47645559,-92.15704172
Louisiana,Plaquemines,22075,29.42245447,-89.60322085
Louisiana,Pointe Coupee,22077,30.71409502,-91.60209535
Louisiana,Rapides,22079,31.19778499,-92.52997303
Louisiana,Red River,22081,32.09530039,-93.34213308
Louisiana,Richland,22083,32.41391005,-91.76634876
Louisiana,Sabine,22085,31.56388699,-93.55433981
Louisiana,St. Bernard,22087,29.87761636,-89.51887093
Louisiana,St. Charles,22089,29.90709658,-90.35555967
Louisiana,St. Helena,22091,30.82210324,-90.71013176
Louisiana,St. James,22093,30.02531716,-90.80212061
Louisiana,St. John the Baptist,22095,30.12597499,-90.4753503
Louisiana,St. Landry,22097,30.59724262,-92.00135806
Louisiana,St. Martin,22099,30.13112107,-91.61403569
Louisiana,St. Mary,22101,29.69262097,-91.44702164
Louisiana,St. Tammany,22103,30.40942847,-89.95642711
Louisiana,Tangipahoa,22105,30.62888673,-90.40664996
Louisiana,Tensas,22107,32.00760749,-91.32915234
Louisiana,Terrebonne,22109,29.37343766,-90.82626855
Louisiana,Union,22111,32.83121059,-92.3749373
Louisiana,Vermilion,22113,29.83517605,-92.30292538
Louisiana,Vernon,22115,31.10884837,-93.18153838
Louisiana,Washington,22117,30.85288548,-90.03866652
Louisiana,Webster,22119,32.70847669,-93.33121835
Louisiana,West Baton Rouge,22121,30.46058217,-91.30989571
Louisiana,West Carroll,22123,32.78550125,-91.461201
Louisiana,West Feliciana,22125,30.87882871,-91.4148538
Louisiana,Winn,22127,31.94449367,-92.63789413
Maine,Androscoggin,23001,44.1664747,-70.20380627
Maine,Aroostook,23003,46.65926321,-68.59841248
Maine,Cumberland,23005,43.8370751,-70.37226999
Maine,Franklin,23007,44.97330019,-70.44381045
Maine,Hancock,23009,44.59816444,-68.38401854
Maine,Kennebec,23011,44.40759555,-69.76738544
Maine,Knox,23013,44.11486325,-69.10529169
Maine,Lincoln,23015,44.05996956,-69.54227124
Maine,Oxford,23017,44.49952995,-70.75682123
Maine,Penobscot,23019,45.40194593,-68.65020455
Maine,Piscataquis,23021,45.83839062,-69.2860223
Maine,Sagadahoc,23023,43.95415864,-69.85074999
Maine,Somerset,23025,45.51229767,-69.95995554
Maine,Waldo,23027,44.4858305,-69.12061935
Maine,Washington,23029,45.01607142,-67.62813524
Maine,York,23031,43.47808377,-70.71052375
Maryland,Allegany,24001,39.62357628,-78.69280486
Maryland,Anne Arundel,24003,39.00670238,-76.60329337
Maryland,Baltimore,24005,39.45784712,-76.62911955
Maryland,Baltimore City,24510,39.30211911,-76.61151012
Maryland,Calvert,24009,38.53961642,-76.56820632
Maryland,Caroline,24011,38.87172293,-75.82904158
Maryland,Carroll,24013,39.56453592,-77.02373735
Maryland,Cecil,24015,39.56647682,-75.94627411
Maryland,Charles,24017,38.51092331,-76.98580666
Maryland,Dorchester,24019,38.45413522,-76.02752426
Maryland,Frederick,24021,39.47296601,-77.39999394
Maryland,Garrett,24023,39.52786077,-79.27355126
Maryland,Harford,24025,39.55010644,-76.3077594
Maryland,Howard,24027,39.25305293,-76.93126208
Maryland,Kent,24029,39.24976208,-76.04741541
Maryland,Montgomery,24031,39.13676329,-77.20358245
Maryland,Prince George's,24033,38.83070039,-76.8496441
Maryland,Queen Anne's,24035,39.06198912,-76.03530977
Maryland,Somerset,24039,38.1163542,-75.75118623
Maryland,St. Mary's,24037,38.30058422,-76.6062928
Maryland,Talbot,24041,38.76618159,-76.10882561
Maryland,Washington,24043,39.60835778,-77.82002295
Maryland,Wicomico,24045,38.37301947,-75.62705831
Maryland,Worcester,24047,38.21274277,-75.33200012
Massachusetts,Barnstable,25001,41.72980578,-70.28854339
Massachusetts,Berkshire,25003,42.37428441,-73.20524838
Massachusetts,Bristol,25005,41.79228404,-71.10872211
Massachusetts,Dukes,25007,41.40674725,-70.68763497
Massachusetts,Essex,25009,42.6687626,-70.94687179
Massachusetts,Franklin,25011,42.58119713,-72.58602547
Massachusetts,Hampden,25013,42.13440424,-72.63235561
Massachusetts,Hampshire,25015,42.33997957,-72.65898478
Massachusetts,Middlesex,25017,42.48607732,-71.39049229
Massachusetts,Nantucket,25019,41.2942019,-70.08774729
Massachusetts,Norfolk,25021,42.16073095,-71.20530408
Massachusetts,Plymouth,25023,41.94070556,-70.80802823
Massachusetts,Suffolk,25025,42.3279514,-71.07850442
Massachusetts,Worcester,25027,42.35026951,-71.90493363
Michigan,Alcona,26001,44.6846864,-83.59507875
Michigan,Alger,26003,46.41292944,-86.60260122
Michigan,Allegan,26005,42.59147037,-85.89102866
Michigan,Alpena,26007,45.03477666,-83.62212411
Michigan,Antrim,26009,44.99690221,-85.15503082
Michigan,Arenac,26011,44.0636262,-83.89277559
Michigan,Baraga,26013,46.6720582,-88.36363591
Michigan,Barry,26015,42.59513984,-85.30834519
Michigan,Bay,26017,43.70639106,-83.98731479
Michigan,Benzie,26019,44.63899297,-86.01608482
Michigan,Berrien,26021,41.95447397,-86.4131308
Michigan,Branch,26023,41.91600556,-85.05929476
Michigan,Calhoun,26025,42.24633834,-85.00493569
Michigan,Cass,26027,41.91522292,-85.99405727
Michigan,Charlevoix,26029,45.37790017,-85.19614053
Michigan,Cheboygan,26031,45.44787015,-84.50122149
Michigan,Chippewa,26033,46.29552653,-84.54353449
Michigan,Clare,26035,43.98794227,-84.8481986
Michigan,Clinton,26037,42.94400871,-84.60145248
Michigan,Crawford,26039,44.68255561,-84.61006219
Michigan,Delta,26041,45.9048491,-86.9080745
Michigan,Dickinson,26043,46.00999672,-87.86961634
Michigan,Eaton,26045,42.59599185,-84.83740035
Michigan,Emmet,26047,45.52625509,-84.89083249
Michigan,Genesee,26049,43.02244215,-83.70589709
Michigan,Gladwin,26051,43.98901072,-84.38774817
Michigan,Gogebic,26053,46.40862701,-89.69377193
Michigan,Grand Traverse,26055,44.69565625,-85.55585247
Michigan,Gratiot,26057,43.29265605,-84.60505416
Michigan,Hillsdale,26059,41.88753639,-84.59312019
Michigan,Houghton,26061,46.89988536,-88.68495385
Michigan,Huron,26063,43.83353985,-83.04078453
Michigan,Ingham,26065,42.59716886,-84.37472069
Michigan,Ionia,26067,42.94502238,-85.07413319
Michigan,Iosco,26069,44.35486835,-83.63484895
Michigan,Iron,26071,46.20974132,-88.53136251
Michigan,Isabella,26073,43.64060976,-84.84664923
Michigan,Jackson,26075,42.24807035,-84.42258681
Michigan,Kalamazoo,26077,42.24542231,-85.53038622
Michigan,Kalkaska,26079,44.68512729,-85.09085699
Michigan,Kent,26081,43.03197711,-85.54934642
Michigan,Keweenaw,26083,47.63197653,-88.41434263
Michigan,Lake,26085,43.99050893,-85.802173
Michigan,Lapeer,26087,43.09052506,-83.22153148
Michigan,Leelanau,26089,44.94430054,-85.80150326
Michigan,Lenawee,26091,41.89475156,-84.06603727
Michigan,Livingston,26093,42.60302282,-83.91297209
Michigan,Luce,26095,46.47227431,-85.54471223
Michigan,Mackinac,26097,46.07028979,-85.04980537
Michigan,Macomb,26099,42.69158356,-82.92752801
Michigan,Manistee,26101,44.33352407,-86.05626916
Michigan,Marquette,26103,46.4338914,-87.64043701
Michigan,Mason,26105,43.99509218,-86.24988902
Michigan,Mecosta,26107,43.64064262,-85.32463223
Michigan,Menominee,26109,45.58038692,-87.55370409
Michigan,Midland,26111,43.64330771,-84.38804374
Michigan,Missaukee,26113,44.33772443,-85.09256478
Michigan,Monroe,26115,41.92734151,-83.53749864
Michigan,Montcalm,26117,43.31082541,-85.15252824
Michigan,Montmorency,26119,45.0275929,-84.12696227
Michigan,Muskegon,26121,43.29123859,-86.15176712
Michigan,Newaygo,26123,43.554374,-85.80070107
Michigan,Oakland,26125,42.66090111,-83.38595416
Michigan,Oceana,26127,43.64124435,-86.26726673
Michigan,Ogemaw,26129,44.33481032,-84.12725175
Michigan,Ontonagon,26131,46.6652262,-89.31390481
Michigan,Osceola,26133,43.98992088,-85.32566756
Michigan,Oscoda,26135,44.68192279,-84.12939244
Michigan,Otsego,26137,45.02085831,-84.59898295
Michigan,Ottawa,26139,42.95996803,-85.9969107
Michigan,Presque Isle,26141,45.34018577,-83.91498656
Michigan,Roscommon,26143,44.33473082,-84.61067651
Michigan,Saginaw,26145,43.33433923,-84.0513121
Michigan,Sanilac,26151,43.42406072,-82.82055898
Michigan,Schoolcraft,26153,46.19235734,-86.19972234
Michigan,Shiawassee,26155,42.953928,-84.14585902
Michigan,St. Clair,26147,42.92655373,-82.67937954
Michigan,St. Joseph,26149,41.91441767,-85.52797979
Michigan,Tuscola,26157,43.46606813,-83.41897025
Michigan,Van Buren,26159,42.25190229,-86.01939087
Michigan,Washtenaw,26161,42.253105,-83.83853204
Michigan,Wayne,26163,42.28098405,-83.281255
Michigan,Wexford,26165,44.33853602,-85.57712739
Minnesota,Aitkin,27001,46.60962049,-93.4116826
Minnesota,Anoka,27003,45.27476015,-93.24604565
Minnesota,Becker,27005,46.93479392,-95.67158144
Minnesota,Beltrami,27007,47.97373527,-94.93732139
Minnesota,Benton,27009,45.69804958,-93.99514135
Minnesota,Big Stone,27011,45.42712824,-96.41403739
Minnesota,Blue Earth,27013,44.03554215,-94.06699781
Minnesota,Brown,27015,44.24205652,-94.72562874
Minnesota,Carlton,27017,46.59180601,-92.67601019
Minnesota,Carver,27019,44.82017001,-93.8009918
Minnesota,Cass,27021,46.95043611,-94.32603968
Minnesota,Chippewa,27023,45.02343421,-95.56403693
Minnesota,Chisago,27025,45.5021011,-92.90861945
Minnesota,Clay,27027,46.89289518,-96.48761922
Minnesota,Clearwater,27029,47.57992111,-95.37790562
Minnesota,Cook,27031,47.90504893,-90.52629546
Minnesota,Cottonwood,27033,44.00715262,-95.18138802
Minnesota,Crow Wing,27035,46.48096553,-94.06755609
Minnesota,Dakota,27037,44.67172617,-93.06299363
Minnesota,Dodge,27039,44.02238415,-92.86244324
Minnesota,Douglas,27041,45.93348491,-95.45335469
Minnesota,Faribault,27043,43.67381499,-93.94787458
Minnesota,Fillmore,27045,43.67394126,-92.08980382
Minnesota,Freeborn,27047,43.67385583,-93.34884422
Minnesota,Goodhue,27049,44.40849741,-92.7234195
Minnesota,Grant,27051,45.93424769,-96.01139609
Minnesota,Hennepin,27053,45.00761521,-93.47694895
Minnesota,Houston,27055,43.67129565,-91.49143057
Minnesota,Hubbard,27057,47.10778564,-94.91693868
Minnesota,Isanti,27059,45.56181234,-93.29487636
Minnesota,Itasca,27061,47.51009045,-93.63092229
Minnesota,Jackson,27063,43.67423373,-95.15398258
Minnesota,Kanabec,27065,45.9459309,-93.29275192
Minnesota,Kandiyohi,27067,45.1526059,-95.00586446
Minnesota,Kittson,27069,48.77754106,-96.78317184
Minnesota,Koochiching,27071,48.24539665,-93.78352843
Minnesota,Lac qui Parle,27073,44.9973857,-96.17488219
Minnesota,Lake,27075,47.64270764,-91.44557998
Minnesota,Lake of the Woods,27077,48.77217001,-94.90274472
Minnesota,Le Sueur,27079,44.37136597,-93.72844721
Minnesota,Lincoln,27081,44.41311883,-96.26688165
Minnesota,Lyon,27083,44.41327865,-95.83806103
Minnesota,Mahnomen,27087,47.32557075,-95.80921485
Minnesota,Marshall,27089,48.35825983,-96.37017407
Minnesota,Martin,27091,43.67429718,-94.55099908
Minnesota,McLeod,27085,44.82367677,-94.27287017
Minnesota,Meeker,27093,45.12328869,-94.52839455
Minnesota,Mille Lacs,27095,45.93705297,-93.63236823
Minnesota,Morrison,27097,46.01265363,-94.27341528
Minnesota,Mower,27099,43.67142874,-92.75234549
Minnesota,Murray,27101,44.02216709,-95.76328482
Minnesota,Nicollet,27103,44.35291112,-94.24710352
Minnesota,Nobles,27105,43.67434621,-95.75329576
Minnesota,Norman,27107,47.32628443,-96.45620947
Minnesota,Olmsted,27109,44.00374114,-92.40209944
Minnesota,Otter Tail,27111,46.40846929,-95.70835255
Minnesota,Pennington,27113,48.06642577,-96.0370814
Minnesota,Pine,27115,46.12105238,-92.74070188
Minnesota,Pipestone,27117,44.02301619,-96.25841142
Minnesota,Polk,27119,47.77372465,-96.40134647
Minnesota,Pope,27121,45.58606667,-95.44451209
Minnesota,Ramsey,27123,45.01625271,-93.09872295
Minnesota,Red Lake,27125,47.87197525,-96.09561104
Minnesota,Redwood,27127,44.40555844,-95.25207021
Minnesota,Renville,27129,44.72836381,-94.94553734
Minnesota,Rice,27131,44.3543376,-93.29658715
Minnesota,Rock,27133,43.67482683,-96.25296832
Minnesota,Roseau,27135,48.77501878,-95.81079919
Minnesota,Scott,27139,44.6490231,-93.53340251
Minnesota,Sherburne,27141,45.44447208,-93.77617511
Minnesota,Sibley,27143,44.5796592,-94.23164924
Minnesota,St. Louis,27137,47.6048407,-92.46879855
Minnesota,Stearns,27145,45.55192576,-94.61078221
Minnesota,Steele,27147,44.02240351,-93.22627088
Minnesota,Stevens,27149,45.58613007,-96.00163705
Minnesota,Swift,27151,45.2829032,-95.68264092
Minnesota,Todd,27153,46.06996226,-94.89785296
Minnesota,Traverse,27155,45.77298854,-96.47062949
Minnesota,Wabasha,27157,44.28424356,-92.23121312
Minnesota,Wadena,27159,46.58589171,-94.96968506
Minnesota,Waseca,27161,44.02211116,-93.58720034
Minnesota,Washington,27163,45.03864533,-92.88429635
Minnesota,Watonwan,27165,43.97823903,-94.61413846
Minnesota,Wilkin,27167,46.35721532,-96.4684375
Minnesota,Winona,27169,43.98772283,-91.78081305
Minnesota,Wright,27171,45.17297924,-93.96234781
Minnesota,Yellow Medicine,27173,44.71710183,-95.86842453
Mississippi,Adams,28001,31.47669768,-91.35326037
Mississippi,Alcorn,28003,34.88084463,-88.57996173
Mississippi,Amite,28005,31.17467303,-90.80501621
Mississippi,Attala,28007,33.08658803,-89.57838564
Mississippi,Benton,28009,34.81681228,-89.18945516
Mississippi,Bolivar,28011,33.79696941,-90.87372121
Mississippi,Calhoun,28013,33.93683395,-89.33686647
Mississippi,Carroll,28015,33.44834567,-89.91994479
Mississippi,Chickasaw,28017,33.91983202,-88.9481545
Mississippi,Choctaw,28019,33.34598242,-89.24809382
Mississippi,Claiborne,28021,31.97061673,-90.90702196
Mississippi,Clarke,28023,32.04158545,-88.6889622
Mississippi,Clay,28025,33.65358105,-88.77784255
Mississippi,Coahoma,28027,34.22772299,-90.60415045
Mississippi,Copiah,28029,31.86977774,-90.44565118
Mississippi,Covington,28031,31.63225413,-89.55389939
Mississippi,DeSoto,28033,34.87625235,-89.99091418
Mississippi,Forrest,28035,31.18961454,-89.25832496
Mississippi,Franklin,28037,31.47786634,-90.89672989
Mississippi,George,28039,30.86259065,-88.64436789
Mississippi,Greene,28041,31.21444233,-88.63922281
Mississippi,Grenada,28043,33.77036166,-89.80245083
Mississippi,Hancock,28045,30.41830223,-89.48851033
Mississippi,Harrison,28047,30.51359752,-89.12467576
Mississippi,Hinds,28049,32.2656285,-90.44435448
Mississippi,Holmes,28051,33.12345854,-90.08923538
Mississippi,Humphreys,28053,33.12825718,-90.52252707
Mississippi,Issaquena,28055,32.72531359,-90.97392828
Mississippi,Itawamba,28057,34.27993475,-88.3606733
Mississippi,Jackson,28059,30.54020656,-88.64184064
Mississippi,Jasper,28061,32.01922104,-89.11786866
Mississippi,Jefferson,28063,31.73397872,-91.03764977
Mississippi,Jefferson Davis,28065,31.56884708,-89.8267099
Mississippi,Jones,28067,31.62257767,-89.168969
Mississippi,Kemper,28069,32.75462946,-88.64105766
Mississippi,Lafayette,28071,34.35687874,-89.48490961
Mississippi,Lamar,28073,31.20572971,-89.5077704
Mississippi,Lauderdale,28075,32.40419769,-88.66229662
Mississippi,Lawrence,28077,31.55147224,-90.10841127
Mississippi,Leake,28079,32.7536828,-89.52402044
Mississippi,Lee,28081,34.2918775,-88.68149954
Mississippi,Leflore,28083,33.55545125,-90.29900733
Mississippi,Lincoln,28085,31.53288662,-90.45391915
Mississippi,Lowndes,28087,33.47386518,-88.4419153
Mississippi,Madison,28089,32.63389156,-90.03513564
Mississippi,Marion,28091,31.23132643,-89.8209217
Mississippi,Marshall,28093,34.76216286,-89.50299462
Mississippi,Monroe,28095,33.89236763,-88.4808438
Mississippi,Montgomery,28097,33.49419589,-89.61729103
Mississippi,Neshoba,28099,32.75339664,-89.11726492
Mississippi,Newton,28101,32.40021118,-89.11843336
Mississippi,Noxubee,28103,33.11009499,-88.56949061
Mississippi,Oktibbeha,28105,33.42491685,-88.87905132
Mississippi,Panola,28107,34.36398677,-89.95064249
Mississippi,Pearl River,28109,30.77090935,-89.58677275
Mississippi,Perry,28111,31.17161885,-88.99281835
Mississippi,Pike,28113,31.17507789,-90.40392572
Mississippi,Pontotoc,28115,34.226046,-89.03636807
Mississippi,Prentiss,28117,34.61810501,-88.51986294
Mississippi,Quitman,28119,34.25157572,-90.28908
Mississippi,Rankin,28121,32.26469147,-89.94537876
Mississippi,Scott,28123,32.4067041,-89.53789439
Mississippi,Sharkey,28125,32.88149103,-90.8159538
Mississippi,Simpson,28127,31.91282117,-89.91716179
Mississippi,Smith,28129,32.01744532,-89.50644846
Mississippi,Stone,28131,30.79187949,-89.11547539
Mississippi,Sunflower,28133,33.60192578,-90.58882684
Mississippi,Tallahatchie,28135,33.95339918,-90.1729398
Mississippi,Tate,28137,34.65133709,-89.94485778
Mississippi,Tippah,28139,34.76872156,-88.90988194
Mississippi,Tishomingo,28141,34.74023475,-88.23917219
Mississippi,Tunica,28143,34.64967704,-90.37481167
Mississippi,Union,28145,34.49162015,-89.00776006
Mississippi,Walthall,28147,31.14971548,-90.10446654
Mississippi,Warren,28149,32.35810271,-90.83352619
Mississippi,Washington,28151,33.28392041,-90.94196237
Mississippi,Wayne,28153,31.64135687,-88.69573913
Mississippi,Webster,28155,33.61300486,-89.28392912
Mississippi,Wilkinson,28157,31.16078225,-91.31018819
Mississippi,Winston,28159,33.08747908,-89.03391385
Mississippi,Yalobusha,28161,34.02824175,-89.7076205
Mississippi,Yazoo,28163,32.77890365,-90.39656148
Missouri,Adair,29001,40.19058551,-92.60078167
Missouri,Andrew,29003,39.98492163,-94.80163024
Missouri,Atchison,29005,40.43238737,-95.42970639
Missouri,Audrain,29007,39.215877,-91.84242683
Missouri,Barry,29009,36.70978521,-93.82919888
Missouri,Barton,29011,37.50207671,-94.34757022
Missouri,Bates,29013,38.25271289,-94.34113157
Missouri,Benton,29015,38.29503305,-93.28756116
Missouri,Bollinger,29017,37.32449052,-90.02725304
Missouri,Boone,29019,38.99186229,-92.30723575
Missouri,Buchanan,29021,39.65816401,-94.80138942
Missouri,Butler,29023,36.71462476,-90.40421163
Missouri,Caldwell,29025,39.65620858,-93.98308093
Missouri,Callaway,29027,38.83674754,-91.92186505
Missouri,Camden,29029,38.02199522,-92.76083747
Missouri,Cape Girardeau,29031,37.38489388,-89.6843587
Missouri,Carroll,29033,39.42762566,-93.50626255
Missouri,Carter,29035,36.94160441,-90.96051322
Missouri,Cass,29037,38.64789422,-94.353399
Missouri,Cedar,29039,37.72391475,-93.85445441
Missouri,Chariton,29041,39.51499357,-92.9629191
Missouri,Christian,29043,36.9711783,-93.18537118
Missouri,Clark,29045,40.41040752,-91.73661677
Missouri,Clay,29047,39.31132056,-94.41850862
Missouri,Clinton,29049,39.6013098,-94.40465394
Missouri,Cole,29051,38.50455671,-92.27860244
Missouri,Cooper,29053,38.844478,-92.80896081
Missouri,Crawford,29055,37.97663738,-91.30528104
Missouri,Dade,29057,37.431814,-93.8503345
Missouri,Dallas,29059,37.6811355,-93.02127031
Missouri,Daviess,29061,39.96145298,-93.98519678
Missouri,DeKalb,29063,39.89201062,-94.40476508
Missouri,Dent,29065,37.60663134,-91.50790473
Missouri,Douglas,29067,36.9325593,-92.49905109
Missouri,Dunklin,29069,36.27167174,-90.09122243
Missouri,Franklin,29071,38.41127108,-91.07522826
Missouri,Gasconade,29073,38.43947277,-91.50847147
Missouri,Gentry,29075,40.21097916,-94.40944419
Missouri,Greene,29077,37.2575872,-93.34230916
Missouri,Grundy,29079,40.11406587,-93.56509276
Missouri,Harrison,29081,40.35570088,-93.99222144
Missouri,Henry,29083,38.38482826,-93.79293734
Missouri,Hickory,29085,37.94163617,-93.3203037
Missouri,Holt,29087,40.09799248,-95.2163888
Missouri,Howard,29089,39.1435761,-92.69756691
Missouri,Howell,29091,36.77383887,-91.88683935
Missouri,Iron,29093,37.55487945,-90.7735296
Missouri,Jackson,29095,39.01002188,-94.34724536
Missouri,Jasper,29097,37.20351921,-94.34050458
Missouri,Jefferson,29099,38.25926778,-90.53870896
Missouri,Johnson,29101,38.74719601,-93.80691168
Missouri,Knox,29103,40.12699751,-92.14780832
Missouri,Laclede,29105,37.65896829,-92.5888493
Missouri,Lafayette,29107,39.06986886,-93.78076396
Missouri,Lawrence,29109,37.10626634,-93.83293097
Missouri,Lewis,29111,40.09673161,-91.72070156
Missouri,Lincoln,29113,39.05345619,-90.95588181
Missouri,Linn,29115,39.87001769,-93.10704106
Missouri,Livingston,29117,39.78110272,-93.54645978
Missouri,Macon,29121,39.83049768,-92.56453089
Missouri,Madison,29123,37.47865134,-90.3467143
Missouri,Maries,29125,38.16193985,-91.92249662
Missouri,Marion,29127,39.80601912,-91.62203062
Missouri,McDonald,29119,36.62869595,-94.34867205
Missouri,Mercer,29129,40.42212303,-93.5682959
Missouri,Miller,29131,38.21450288,-92.42610898
Missouri,Mississippi,29133,36.82516239,-89.29505753
Missouri,Moniteau,29135,38.63571781,-92.57976951
Missouri,Monroe,29137,39.49593978,-92.00043978
Missouri,Montgomery,29139,38.94022054,-91.47000721
Missouri,Morgan,29141,38.4181765,-92.88791859
Missouri,New Madrid,29143,36.59666326,-89.66070007
Missouri,Newton,29145,36.90519407,-94.3394104
Missouri,Nodaway,29147,40.36079813,-94.88133008
Missouri,Oregon,29149,36.68710164,-91.4033755
Missouri,Osage,29151,38.46036182,-91.8613635
Missouri,Ozark,29153,36.64916339,-92.44459066
Missouri,Pemiscot,29155,36.2130572,-89.78742322
Missouri,Perry,29157,37.70660776,-89.82741088
Missouri,Pettis,29159,38.72798918,-93.28471706
Missouri,Phelps,29161,37.87736118,-91.79351727
Missouri,Pike,29163,39.34310674,-91.16980779
Missouri,Platte,29165,39.38154439,-94.77068479
Missouri,Polk,29167,37.6162296,-93.39828174
Missouri,Pulaski,29169,37.82462075,-92.20783203
Missouri,Putnam,29171,40.47942497,-93.02042674
Missouri,Ralls,29173,39.52817427,-91.51838643
Missouri,Randolph,29175,39.44007257,-92.4971374
Missouri,Ray,29177,39.3537468,-93.98905745
Missouri,Reynolds,29179,37.36085952,-90.97009925
Missouri,Ripley,29181,36.65460667,-90.85990261
Missouri,Saline,29195,39.13734288,-93.20259964
Missouri,Schuyler,29197,40.46921489,-92.52311943
Missouri,Scotland,29199,40.45214695,-92.14709064
Missouri,Scott,29201,37.05588075,-89.56474493
Missouri,Shannon,29203,37.15772072,-91.40190382
Missouri,Shelby,29205,39.79742518,-92.07634971
Missouri,St. Charles,29183,38.77875681,-90.66662425
Missouri,St. Clair,29185,38.03699437,-93.77631447
Missouri,St. Francois,29187,37.81214171,-90.47598685
Missouri,St. Louis,29189,38.6377004,-90.4458375
Missouri,St. Louis City,29510,38.63555736,-90.24349225
Missouri,Ste. Genevieve,29186,37.89090059,-90.1949941
Missouri,Stoddard,29207,36.85571651,-89.9444155
Missouri,Stone,29209,36.75000327,-93.45256475
Missouri,Sullivan,29211,40.2099105,-93.11150106
Missouri,Taney,29213,36.65465345,-93.04075153
Missouri,Texas,29215,37.31728859,-91.96564727
Missouri,Vernon,29217,37.8457799,-94.34127305
Missouri,Warren,29219,38.76529479,-91.16124662
Missouri,Washington,29221,37.96130078,-90.87948158
Missouri,Wayne,29223,37.11303869,-90.46001416
Missouri,Webster,29225,37.2813734,-92.876329
Missouri,Worth,29227,40.47945588,-94.42328751
Missouri,Wright,29229,37.27029221,-92.46914488
Montana,Beaverhead,30001,45.13434354,-112.8984694
Montana,Big Horn,30003,45.42335905,-107.492347
Montana,Blaine,30005,48.43175214,-108.9582723
Montana,Broadwater,30007,46.33277565,-111.4955813
Montana,Carbon,30009,45.22850116,-109.0274047
Montana,Carter,30011,45.5197966,-104.5395536
Montana,Cascade,30013,47.30797024,-111.3467922
Montana,Chouteau,30015,47.88084126,-110.4353362
Montana,Custer,30017,46.25319932,-105.5737526
Montana,Daniels,30019,48.78420029,-105.5476343
Montana,Dawson,30021,47.26584855,-104.8944417
Montana,Deer Lodge,30023,46.05953325,-113.073353
Montana,Fallon,30025,46.33478338,-104.4183565
Montana,Fergus,30027,47.26331584,-109.2245206
Montana,Flathead,30029,48.29575866,-114.0520569
Montana,Gallatin,30031,45.54486106,-111.1692571
Montana,Garfield,30033,47.27545948,-107.0002351
Montana,Glacier,30035,48.70513576,-112.9934235
Montana,Golden Valley,30037,46.3816474,-109.1768522
Montana,Granite,30039,46.4060522,-113.4414186
Montana,Hill,30041,48.62879827,-110.1129252
Montana,Jefferson,30043,46.14907081,-112.094396
Montana,Judith Basin,30045,47.04581276,-110.2660688
Montana,Lake,30047,47.64514965,-114.0898013
Montana,Lewis and Clark,30049,47.12610041,-112.394698
Montana,Liberty,30051,48.56084317,-111.024307
Montana,Lincoln,30053,48.54265777,-115.4046155
Montana,Madison,30057,45.30080065,-111.9173017
Montana,McCone,30055,47.64469406,-105.7944994
Montana,Meagher,30059,46.59907074,-110.8898557
Montana,Mineral,30061,47.15283992,-115.0015239
Montana,Missoula,30063,47.03728583,-113.9213508
Montana,Musselshell,30065,46.49684637,-108.39498
Montana,Park,30067,45.48965095,-110.5264394
Montana,Petroleum,30069,47.1182463,-108.2508876
Montana,Phillips,30071,48.25936577,-107.9128511
Montana,Pondera,30073,48.22773388,-112.2252703
Montana,Powder River,30075,45.39617714,-105.636738
Montana,Powell,30077,46.85538891,-112.9359164
Montana,Prairie,30079,46.86048047,-105.379384
Montana,Ravalli,30081,46.08520862,-114.1189164
Montana,Richland,30083,47.78668011,-104.5610786
Montana,Roosevelt,30085,48.29607488,-105.0079268
Montana,Rosebud,30087,46.23397237,-106.729288
Montana,Sanders,30089,47.67657534,-115.1329916
Montana,Sheridan,30091,48.72085833,-104.503829
Montana,Silver Bow,30093,45.90018933,-112.6620092
Montana,Stillwater,30095,45.67071407,-109.3950061
Montana,Sweet Grass,30097,45.81367654,-109.9425686
Montana,Teton,30099,47.83741052,-112.2410688
Montana,Toole,30101,48.65577551,-111.6942414
Montana,Treasure,30103,46.2097322,-107.2666516
Montana,Valley,30105,48.36435097,-106.6669635
Montana,Wheatland,30107,46.46652491,-109.8464636
Montana,Wibaux,30109,46.95925154,-104.2510927
Montana,Yellowstone,30111,45.93955949,-108.2691486
Nebraska,Adams,31001,40.5244942,-98.50117804
Nebraska,Antelope,31003,42.17695516,-98.0666283
Nebraska,Arthur,31005,41.56896142,-101.6959559
Nebraska,Banner,31007,41.54634427,-103.7114332
Nebraska,Blaine,31009,41.91311716,-99.97677845
Nebraska,Boone,31011,41.70759415,-98.06737183
Nebraska,Box Butte,31013,42.22079243,-103.0878834
Nebraska,Boyd,31015,42.8997274,-98.76486568
Nebraska,Brown,31017,42.43018907,-99.92904055
Nebraska,Buffalo,31019,40.85486962,-99.07500296
Nebraska,Burt,31021,41.85056773,-96.32605633
Nebraska,Butler,31023,41.22703692,-97.13106306
Nebraska,Cass,31025,40.90899107,-96.13971217
Nebraska,Cedar,31027,42.5988851,-97.25311951
Nebraska,Chase,31029,40.5237198,-101.6978026
Nebraska,Cherry,31031,42.54502621,-101.1244332
Nebraska,Cheyenne,31033,41.21999357,-102.9941693
Nebraska,Clay,31035,40.52439441,-98.05126296
Nebraska,Colfax,31037,41.57486951,-97.0868542
Nebraska,Cuming,31039,41.91637624,-96.78730772
Nebraska,Custer,31041,41.39374521,-99.72805369
Nebraska,Dakota,31043,42.39040144,-96.56656425
Nebraska,Dawes,31045,42.71985036,-103.1313774
Nebraska,Dawson,31047,40.87028216,-99.8201461
Nebraska,Deuel,31049,41.11168186,-102.3333331
Nebraska,Dixon,31051,42.49188363,-96.86782408
Nebraska,Dodge,31053,41.58071748,-96.65598179
Nebraska,Douglas,31055,41.29518299,-96.15085305
Nebraska,Dundy,31057,40.17638677,-101.6876522
Nebraska,Fillmore,31059,40.52458567,-97.59646937
Nebraska,Franklin,31061,40.17636348,-98.95299073
Nebraska,Frontier,31063,40.52993007,-100.3924658
Nebraska,Furnas,31065,40.17642064,-99.91247454
Nebraska,Gage,31067,40.26186809,-96.68946704
Nebraska,Garden,31069,41.61703149,-102.3313973
Nebraska,Garfield,31071,41.91428955,-98.99111827
Nebraska,Gosper,31073,40.51481965,-99.83020279
Nebraska,Grant,31075,41.91528587,-101.740701
Nebraska,Greeley,31077,41.56742671,-98.52150266
Nebraska,Hall,31079,40.87257079,-98.50218293
Nebraska,Hamilton,31081,40.87349452,-98.02099117
Nebraska,Harlan,31083,40.17658508,-99.40438879
Nebraska,Hayes,31085,40.52451972,-101.0603568
Nebraska,Hitchcock,31087,40.17609175,-101.0416477
Nebraska,Holt,31089,42.45522056,-98.78402558
Nebraska,Hooker,31091,41.91586243,-101.1354293
Nebraska,Howard,31093,41.2200529,-98.5166499
Nebraska,Jefferson,31095,40.17584531,-97.142601
Nebraska,Johnson,31097,40.39257596,-96.26522753
Nebraska,Kearney,31099,40.50663314,-98.94877182
Nebraska,Keith,31101,41.19930341,-101.6620164
Nebraska,Keya Paha,31103,42.87990694,-99.71343729
Nebraska,Kimball,31105,41.19774275,-103.7148131
Nebraska,Knox,31107,42.63758421,-97.89178836
Nebraska,Lancaster,31109,40.78416049,-96.68777155
Nebraska,Lincoln,31111,41.04658298,-100.7475374
Nebraska,Logan,31113,41.56650314,-100.4817851
Nebraska,Loup,31115,41.91371961,-99.45440415
Nebraska,Madison,31119,41.91676024,-97.6005481
Nebraska,McPherson,31117,41.56797682,-101.0599362
Nebraska,Merrick,31121,41.16624273,-98.0374887
Nebraska,Morrill,31123,41.71711774,-103.0061405
Nebraska,Nance,31125,41.39750195,-97.99327291
Nebraska,Nemaha,31127,40.38514847,-95.85433992
Nebraska,Nuckolls,31129,40.17637905,-98.04743961
Nebraska,Otoe,31131,40.64843556,-96.13374142
Nebraska,Pawnee,31133,40.13141096,-96.23705437
Nebraska,Perkins,31135,40.85082525,-101.6502942
Nebraska,Phelps,31137,40.51156033,-99.41461667
Nebraska,Pierce,31139,42.26434853,-97.60122773
Nebraska,Platte,31141,41.57246836,-97.52144359
Nebraska,Polk,31143,41.18813488,-97.56630712
Nebraska,Red Willow,31145,40.1755688,-100.476998
Nebraska,Richardson,31147,40.1247415,-95.71755036
Nebraska,Rock,31149,42.42252217,-99.44832069
Nebraska,Saline,31151,40.52418865,-97.14085859
Nebraska,Sarpy,31153,41.11314181,-96.11156432
Nebraska,Saunders,31155,41.2278103,-96.63773905
Nebraska,Scotts Bluff,31157,41.85070896,-103.7080986
Nebraska,Seward,31159,40.87241834,-97.139673
Nebraska,Sheridan,31161,42.50284406,-102.4126613
Nebraska,Sherman,31163,41.22045983,-98.97588642
Nebraska,Sioux,31165,42.48932059,-103.7576544
Nebraska,Stanton,31167,41.9169835,-97.19394708
Nebraska,Thayer,31169,40.17626377,-97.59504381
Nebraska,Thomas,31171,41.91358968,-100.5556632
Nebraska,Thurston,31173,42.15725356,-96.54157099
Nebraska,Valley,31175,41.56730777,-98.98197724
Nebraska,Washington,31177,41.52815707,-96.22019892
Nebraska,Wayne,31179,42.20934475,-97.11926964
Nebraska,Webster,31181,40.17642643,-98.50019851
Nebraska,Wheeler,31183,41.91482725,-98.52798941
Nebraska,York,31185,40.87272618,-97.59710186
Nevada,Carson City,32510,39.15509045,-119.7480219
Nevada,Churchill,32001,39.58105744,-118.3394607
Nevada,Clark,32003,36.21458855,-115.0130241
Nevada,Douglas,32005,38.912862,-119.6171333
Nevada,Elko,32007,41.14531606,-115.3577619
Nevada,Esmeralda,32009,37.78436681,-117.6319999
Nevada,Eureka,32011,39.98100864,-116.2683204
Nevada,Humboldt,32013,41.40692186,-118.1109427
Nevada,Lander,32015,39.9332233,-117.0397075
Nevada,Lincoln,32017,37.64268459,-114.8790388
Nevada,Lyon,32019,39.01777974,-119.1870479
Nevada,Mineral,32021,38.53841696,-118.4344506
Nevada,Nye,32023,38.04264256,-116.4722702
Nevada,Pershing,32027,40.44003782,-118.4005641
Nevada,Storey,32029,39.44875482,-119.5250207
Nevada,Washoe,32031,40.66562265,-119.6631594
Nevada,White Pine,32033,39.44157041,-114.899966
New Hampshire,Belknap,33001,43.51637314,-71.41684235
New Hampshire,Carroll,33003,43.87498583,-71.20430216
New Hampshire,Cheshire,33005,42.92015988,-72.25311043
New Hampshire,Coos,33007,44.69063265,-71.30633239
New Hampshire,Grafton,33009,43.93779815,-71.82057197
New Hampshire,Hillsborough,33011,42.91537785,-71.7200253
New Hampshire,Merrimack,33013,43.29662971,-71.6811573
New Hampshire,Rockingham,33015,42.98499744,-71.12883377
New Hampshire,Strafford,33017,43.291833,-71.02336013
New Hampshire,Sullivan,33019,43.36094111,-72.22203125
New Jersey,Atlantic,34001,39.47538693,-74.65848483
New Jersey,Bergen,34003,40.96010917,-74.07164325
New Jersey,Burlington,34005,39.87681124,-74.66927768
New Jersey,Camden,34007,39.80343818,-74.96388753
New Jersey,Cape May,34009,39.15008829,-74.80170244
New Jersey,Cumberland,34011,39.37199394,-75.10712559
New Jersey,Essex,34013,40.78681335,-74.24657979
New Jersey,Gloucester,34015,39.71581067,-75.13995546
New Jersey,Hudson,34017,40.73766234,-74.07515667
New Jersey,Hunterdon,34019,40.56335249,-74.91284156
New Jersey,Mercer,34021,40.28047017,-74.70479631
New Jersey,Middlesex,34023,40.43629879,-74.41426991
New Jersey,Monmouth,34025,40.26549699,-74.22240686
New Jersey,Morris,34027,40.86095313,-74.5455371
New Jersey,Ocean,34029,39.8895449,-74.28089251
New Jersey,Passaic,34031,41.03238628,-74.29954144
New Jersey,Salem,34033,39.58719656,-75.3469663
New Jersey,Somerset,34035,40.56465737,-74.61683016
New Jersey,Sussex,34037,41.13891592,-74.69118243
New Jersey,Union,34039,40.65835409,-74.30680092
New Jersey,Warren,34041,40.85951833,-74.99556527
New Mexico,Bernalillo,35001,35.05163625,-106.6703554
New Mexico,Catron,35003,33.91514144,-108.4046587
New Mexico,Chaves,35005,33.36406072,-104.4665365
New Mexico,Cibola,35006,34.91131525,-107.998876
New Mexico,Colfax,35007,36.60569702,-104.6472674
New Mexico,Curry,35009,34.57421077,-103.3468876
New Mexico,De Baca,35011,34.34274529,-104.4117842
New Mexico,Doa Ana,35013,32.35275771,-106.8329387
New Mexico,Eddy,35015,32.47167456,-104.3053527
New Mexico,Grant,35017,32.73911281,-108.3827845
New Mexico,Guadalupe,35019,34.86319296,-104.790669
New Mexico,Harding,35021,35.85751555,-103.8220938
New Mexico,Hidalgo,35023,31.91383467,-108.7151824
New Mexico,Lea,35025,32.79215361,-103.4123733
New Mexico,Lincoln,35027,33.74526079,-105.4586166
New Mexico,Los Alamos,35028,35.86631386,-106.3134985
New Mexico,Luna,35029,32.18179341,-107.7508826
New Mexico,McKinley,35031,35.5800772,-108.262245
New Mexico,Mora,35033,36.01095101,-104.9497716
New Mexico,Otero,35035,32.61348406,-105.7417604
New Mexico,Quay,35037,35.10403332,-103.5481727
New Mexico,Rio Arriba,35039,36.51072137,-106.6931674
New Mexico,Roosevelt,35041,34.02097406,-103.4799493
New Mexico,San Juan,35045,36.50838318,-108.320437
New Mexico,San Miguel,35047,35.48014807,-104.8163562
New Mexico,Sandoval,35043,35.68862401,-106.8687803
New Mexico,Santa Fe,35049,35.50708973,-105.9774716
New Mexico,Sierra,35051,33.13028233,-107.1925893
New Mexico,Socorro,35053,34.00715494,-106.9298354
New Mexico,Taos,35055,36.58006022,-105.6310198
New Mexico,Torrance,35057,34.64048375,-105.8508949
New Mexico,Union,35059,36.48126404,-103.4709624
New Mexico,Valencia,35061,34.71669834,-106.8103733
New York,Albany,36001,42.60060306,-73.97723916
New York,Allegany,36003,42.25748406,-78.02750466
New York,Bronx,36005,40.85209301,-73.86282755
New York,Broome,36007,42.15903158,-75.81326086
New York,Cattaraugus,36009,42.24778241,-78.67923096
New York,Cayuga,36011,42.91261714,-76.55731592
New York,Chautauqua,36013,42.2276921,-79.36691763
New York,Chemung,36015,42.13891056,-76.7638805
New York,Chenango,36017,42.49430041,-75.60887553
New York,Clinton,36019,44.74530905,-73.67875352
New York,Columbia,36021,42.24819348,-73.63089095
New York,Cortland,36023,42.59509207,-76.07048931
New York,Delaware,36025,42.19837623,-74.96709306
New York,Dutchess,36027,41.7648606,-73.74356679
New York,Erie,36029,42.76249024,-78.73063652
New York,Essex,36031,44.11630765,-73.77297842
New York,Franklin,36033,44.59040891,-74.29926032
New York,Fulton,36035,43.11363907,-74.41798804
New York,Genesee,36037,43.0022601,-78.19135193
New York,Greene,36039,42.275797,-74.12384884
New York,Hamilton,36041,43.66146647,-74.49721957
New York,Herkimer,36043,43.42034246,-74.96145307
New York,Jefferson,36045,44.04200959,-75.94653457
New York,Kings,36047,40.6361825,-73.94935552
New York,Lewis,36049,43.7844157,-75.44903992
New York,Livingston,36051,42.72596275,-77.77966158
New York,Madison,36053,42.91653905,-75.67266639
New York,Monroe,36055,43.14638895,-77.69322942
New York,Montgomery,36057,42.90123494,-74.44011632
New York,Nassau,36059,40.74066522,-73.58941873
New York,New York City,36061,40.7672726,-73.97152637
New York,Niagara,36063,43.19898042,-78.74777412
New York,Oneida,36065,43.24375382,-75.43710392
New York,Onondaga,36067,43.00491923,-76.19971155
New York,Ontario,36069,42.85145728,-77.30874425
New York,Orange,36071,41.40337468,-74.30240757
New York,Orleans,36073,43.2516977,-78.2320066
New York,Oswego,36075,43.42778894,-76.14635194
New York,Otsego,36077,42.63492579,-75.03151402
New York,Putnam,36079,41.42630093,-73.74965532
New York,Queens,36081,40.71088124,-73.81684712
New York,Rensselaer,36083,42.71348136,-73.51089874
New York,Richmond,36085,40.58582155,-74.14808598
New York,Rockland,36087,41.15027894,-74.02560498
New York,Saratoga,36091,43.10904162,-73.86653895
New York,Schenectady,36093,42.81668777,-74.05278291
New York,Schoharie,36095,42.58831742,-74.4433903
New York,Schuyler,36097,42.39184015,-76.8773299
New York,Seneca,36099,42.78081007,-76.82497064
New York,St. Lawrence,36089,44.4976179,-75.06550039
New York,Steuben,36101,42.2689144,-77.3829924
New York,Suffolk,36103,40.88320119,-72.8012172
New York,Sullivan,36105,41.71579493,-74.76394559
New York,Tioga,36107,42.16852837,-76.30835812
New York,Tompkins,36109,42.44945765,-76.47229843
New York,Ulster,36111,41.89027881,-74.26252104
New York,Warren,36113,43.56173026,-73.8433699
New York,Washington,36115,43.31153794,-73.43043448
New York,Wayne,36117,43.15494365,-77.02976528
New York,Westchester,36119,41.16278376,-73.75741653
New York,Wyoming,36121,42.70145109,-78.22199579
New York,Yates,36123,42.63505484,-77.10369919
North Carolina,Alamance,37001,36.0434701,-79.39976137
North Carolina,Alexander,37003,35.9223796,-81.17751948
North Carolina,Alleghany,37005,36.49360862,-81.12857041
North Carolina,Anson,37007,34.97403241,-80.09953279
North Carolina,Ashe,37009,36.43296207,-81.49862729
North Carolina,Avery,37011,36.07569796,-81.92308483
North Carolina,Beaufort,37013,35.48531943,-76.84325809
North Carolina,Bertie,37015,36.0688473,-76.96545943
North Carolina,Bladen,37017,34.61296243,-78.56180059
North Carolina,Brunswick,37019,34.070565,-78.22814204
North Carolina,Buncombe,37021,35.61113393,-82.53305
North Carolina,Burke,37023,35.74989637,-81.70755735
North Carolina,Cabarrus,37025,35.3877799,-80.55267168
North Carolina,Caldwell,37027,35.95204977,-81.54799522
North Carolina,Camden,37029,36.33804939,-76.15568396
North Carolina,Carteret,37031,34.8932941,-76.54120135
North Carolina,Caswell,37033,36.39312665,-79.33353281
North Carolina,Catawba,37035,35.66211129,-81.2132617
North Carolina,Chatham,37037,35.70394416,-79.25541492
North Carolina,Cherokee,37039,35.1349263,-84.05970864
North Carolina,Chowan,37041,36.12908077,-76.60118385
North Carolina,Clay,37043,35.05704275,-83.74353633
North Carolina,Cleveland,37045,35.33553364,-81.55204486
North Carolina,Columbus,37047,34.26744084,-78.65801424
North Carolina,Craven,37049,35.11833364,-77.08398081
North Carolina,Cumberland,37051,35.04762133,-78.82623165
North Carolina,Currituck,37053,36.36123664,-75.95876401
North Carolina,Dare,37055,35.66520691,-75.71767334
North Carolina,Davidson,37057,35.79115496,-80.21256572
North Carolina,Davie,37059,35.93099927,-80.54496571
North Carolina,Duplin,37061,34.93449805,-77.93140529
North Carolina,Durham,37063,36.03638492,-78.87608331
North Carolina,Edgecombe,37065,35.91230639,-77.59436892
North Carolina,Forsyth,37067,36.12859861,-80.25459052
North Carolina,Franklin,37069,36.081519,-78.28708884
North Carolina,Gaston,37071,35.29373559,-81.17477045
North Carolina,Gates,37073,36.44667547,-76.69749701
North Carolina,Graham,37075,35.3506925,-83.83369267
North Carolina,Granville,37077,36.30337451,-78.65184241
North Carolina,Greene,37079,35.48544173,-77.67578087
North Carolina,Guilford,37081,36.07959451,-79.78824948
North Carolina,Halifax,37083,36.25669272,-77.6556109
North Carolina,Harnett,37085,35.36731853,-78.87243571
North Carolina,Haywood,37087,35.55269063,-82.98196486
North Carolina,Henderson,37089,35.33788927,-82.4766782
North Carolina,Hertford,37091,36.3607755,-76.98104134
North Carolina,Hoke,37093,35.01888303,-79.23651674
North Carolina,Hyde,37095,35.42017674,-76.15180542
North Carolina,Iredell,37097,35.80950511,-80.8743128
North Carolina,Jackson,37099,35.28814273,-83.14093385
North Carolina,Johnston,37101,35.51745004,-78.36622717
North Carolina,Jones,37103,35.02254606,-77.35870791
North Carolina,Lee,37105,35.47623147,-79.17569362
North Carolina,Lenoir,37107,35.2403259,-77.64245615
North Carolina,Lincoln,37109,35.48508185,-81.21740317
North Carolina,Macon,37113,35.14867843,-83.41696617
North Carolina,Madison,37115,35.85402722,-82.71346418
North Carolina,Martin,37117,35.84326734,-77.10860251
North Carolina,McDowell,37111,35.67736232,-82.0482425
North Carolina,Mecklenburg,37119,35.24469268,-80.8317671
North Carolina,Mitchell,37121,36.01059309,-82.1582442
North Carolina,Montgomery,37123,35.33155144,-79.90416657
North Carolina,Moore,37125,35.30885257,-79.48474178
North Carolina,Nash,37127,35.96575634,-77.98422508
North Carolina,New Hanover,37129,34.25758282,-77.87075626
North Carolina,Northampton,37131,36.41736238,-77.39769443
North Carolina,Onslow,37133,34.72607366,-77.42908179
North Carolina,Orange,37135,36.06092947,-79.12167935
North Carolina,Pamlico,37137,35.15253315,-76.66559823
North Carolina,Pasquotank,37139,36.26723798,-76.25134778
North Carolina,Pender,37141,34.52265624,-77.90352133
North Carolina,Perquimans,37143,36.17847453,-76.40603143
North Carolina,Person,37145,36.38989032,-78.97217358
North Carolina,Pitt,37147,35.59535426,-77.37353178
North Carolina,Polk,37149,35.27820615,-82.16812354
North Carolina,Randolph,37151,35.71015088,-79.80570339
North Carolina,Richmond,37153,35.00417719,-79.74491009
North Carolina,Robeson,37155,34.64244496,-79.1025053
North Carolina,Rockingham,37157,36.39593137,-79.77504841
North Carolina,Rowan,37159,35.64003916,-80.52446628
North Carolina,Rutherford,37161,35.40114178,-81.92112099
North Carolina,Sampson,37163,34.98820368,-78.36914061
North Carolina,Scotland,37165,34.8386299,-79.4757978
North Carolina,Stanly,37167,35.31647813,-80.25093221
North Carolina,Stokes,37169,36.4017975,-80.23893369
North Carolina,Surry,37171,36.41689489,-80.69102283
North Carolina,Swain,37173,35.48665845,-83.48748932
North Carolina,Transylvania,37175,35.20383864,-82.79638423
North Carolina,Tyrrell,37177,35.87147226,-76.17055253
North Carolina,Union,37179,34.98960527,-80.52955873
North Carolina,Vance,37181,36.36880673,-78.40670845
North Carolina,Wake,37183,35.78879266,-78.65249174
North Carolina,Warren,37185,36.39728256,-78.10652228
North Carolina,Washington,37187,35.83810081,-76.57299037
North Carolina,Watauga,37189,36.23103603,-81.70033724
North Carolina,Wayne,37191,35.36438125,-78.00027268
North Carolina,Wilkes,37193,36.2084135,-81.16232895
North Carolina,Wilson,37195,35.70625477,-77.917978
North Carolina,Yadkin,37197,36.16222629,-80.66239436
North Carolina,Yancey,37199,35.90079156,-82.31237181
North Dakota,Adams,38001,46.09686891,-102.5285397
North Dakota,Barnes,38003,46.93579637,-98.06605978
North Dakota,Benson,38005,48.0683985,-99.35916363
North Dakota,Billings,38007,47.02366884,-103.3762965
North Dakota,Bottineau,38009,48.79106111,-100.8378166
North Dakota,Bowman,38011,46.11285362,-103.5203343
North Dakota,Burke,38013,48.79094471,-102.5182117
North Dakota,Burleigh,38015,46.97847375,-100.4645214
North Dakota,Cass,38017,46.93201724,-97.2444719
North Dakota,Cavalier,38019,48.77286211,-98.46685243
North Dakota,Dickey,38021,46.11017712,-98.5049008
North Dakota,Divide,38023,48.8149387,-103.4873611
North Dakota,Dunn,38025,47.35423935,-102.6160468
North Dakota,Eddy,38027,47.71701474,-98.90432337
North Dakota,Emmons,38029,46.28398398,-100.2389766
North Dakota,Foster,38031,47.4571084,-98.88279923
North Dakota,Golden Valley,38033,46.94022281,-103.8465421
North Dakota,Grand Forks,38035,47.92093639,-97.45450447
North Dakota,Grant,38037,46.35821257,-101.6390013
North Dakota,Griggs,38039,47.45785838,-98.23850925
North Dakota,Hettinger,38041,46.43375068,-102.4632417
North Dakota,Kidder,38043,46.97830064,-99.77507857
North Dakota,LaMoure,38045,46.45681054,-98.53542355
North Dakota,Logan,38047,46.45729487,-99.47719806
North Dakota,McHenry,38049,48.23104458,-100.6324822
North Dakota,McIntosh,38051,46.11182017,-99.44145858
North Dakota,McKenzie,38053,47.7413337,-103.395905
North Dakota,McLean,38055,47.60766714,-101.3182418
North Dakota,Mercer,38057,47.31213126,-101.8318399
North Dakota,Morton,38059,46.71681782,-101.2822377
North Dakota,Mountrail,38061,48.20197971,-102.3555315
North Dakota,Nelson,38063,47.9226426,-98.19038437
North Dakota,Oliver,38065,47.11530482,-101.3406158
North Dakota,Pembina,38067,48.76623521,-97.5523809
North Dakota,Pierce,38069,48.24977025,-99.96407787
North Dakota,Ramsey,38071,48.26886249,-98.72223879
North Dakota,Ransom,38073,46.45621782,-97.65742504
North Dakota,Renville,38075,48.71982533,-101.6603912
North Dakota,Richland,38077,46.26440649,-96.94852979
North Dakota,Rolette,38079,48.77245354,-99.84097493
North Dakota,Sargent,38081,46.10830372,-97.63217159
North Dakota,Sheridan,38083,47.57700669,-100.3426391
North Dakota,Sioux,38085,46.11323337,-101.0440149
North Dakota,Slope,38087,46.44737738,-103.4601547
North Dakota,Stark,38089,46.80851182,-102.6576326
North Dakota,Steele,38091,47.45611548,-97.72728747
North Dakota,Stutsman,38093,46.97962541,-98.95637318
North Dakota,Towner,38095,48.68565745,-99.24564265
North Dakota,Traill,38097,47.45367788,-97.16323288
North Dakota,Walsh,38099,48.36876964,-97.72574783
North Dakota,Ward,38101,48.22390169,-101.5436763
North Dakota,Wells,38103,47.58614526,-99.65904998
North Dakota,Williams,38105,48.34522353,-103.4793387
Ohio,Adams,39001,38.84541072,-83.4718964
Ohio,Allen,39003,40.77285242,-84.10802343
Ohio,Ashland,39005,40.84772277,-82.27280781
Ohio,Ashtabula,39007,41.70860332,-80.74830218
Ohio,Athens,39009,39.33425634,-82.04278644
Ohio,Auglaize,39011,40.55998859,-84.2242143
Ohio,Belmont,39013,40.01625942,-80.9924051
Ohio,Brown,39015,38.93416837,-83.86788395
